[{"name":"BBC World Service","url":"http://as-hls-ww-live.akamaized.net/pool_07364996/live/ww/bbc_world_service_news_internet/bbc_world_service_news_internet.isml/bbc_world_service_news_internet-audio%3d96000.norewind.m3u8","lat":51.518977,"lon":-0.14302,"codec":"MP3","geo_confidence":"medium"},{"name":"Classic FM UK","url":"http://ice-the.musicradio.com/ClassicFMMP3","lat":51.51014,"lon":-0.12908,"codec":"MP3","geo_confidence":"high"},{"name":"LBC Radio","url":"http://media-sov.musicradio.com/LBC973MP3Low","lat":51.405042026326214,"lon":-0.07691312082632051,"codec":"MP3","geo_confidence":"low"},{"name":"Radio Caroline","url":"http://78.129.202.200:8040/;","lat":52.102911,"lon":1.574157,"codec":"MP3","geo_confidence":"high"},{"name":"talkSPORT","url":"http://radio.talksport.com/stream?aisGetOriginalStream=true","lat":52.30663995135046,"lon":-2.1119831116701113,"codec":"MP3","geo_confidence":"low"},{"name":"Capital FM London","url":"http://media-ice.musicradio.com/CapitalMP3","lat":51.51014,"lon":-0.12908,"codec":"MP3","geo_confidence":"high"},{"name":"Heart London 106.2 [MP3]","url":"http://ice-sov.musicradio.com/HeartLondonMP3","lat":51.51014,"lon":-0.12908,"codec":"MP3","geo_confidence":"high"},{"name":"Heart 80s","url":"https://media-ssl.musicradio.com/Heart80sMP3","lat":51.51014,"lon":-0.12908,"codec":"MP3","geo_confidence":"high"},{"name":"BBC Radio 1Xtra","url":"http://as-hls-ww-live.akamaized.net/pool_92079267/live/ww/bbc_1xtra/bbc_1xtra.isml/bbc_1xtra-audio%3d96000.norewind.m3u8","lat":51.518977,"lon":-0.14302,"codec":"HLS","geo_confidence":"medium"},{"name":"BBC Radio 6 Music","url":"http://as-hls-ww-live.akamaized.net/pool_81827798/live/ww/bbc_6music/bbc_6music.isml/bbc_6music-audio%3d96000.norewind.m3u8","lat":53.4808,"lon":-2.2426,"codec":"HLS","geo_confidence":"high"},{"name":"BBC Asian Network","url":"http://as-hls-ww-live.akamaized.net/pool_22108647/live/ww/bbc_asian_network/bbc_asian_network.isml/bbc_asian_network-audio%3d96000.norewind.m3u8","lat":52.6369,"lon":-1.1398,"codec":"HLS","geo_confidence":"high"},{"name":"Bbc London","url":"http://as-hls-ww-live.akamaized.net/pool_98137350/live/ww/bbc_london/bbc_london.isml/bbc_london-audio%3d96000.norewind.m3u8","lat":54.551311,"lon":-1.571401,"codec":"HLS","geo_confidence":"high"},{"name":"BBC Radio Bristol","url":"http://as-hls-ww-live.akamaized.net/pool_41858929/live/ww/bbc_radio_bristol/bbc_radio_bristol.isml/bbc_radio_bristol-audio%3d96000.norewind.m3u8","lat":51.4545,"lon":-2.5879,"codec":"HLS","geo_confidence":"high"},{"name":"BBC CWR","url":"http://as-hls-ww-live.akamaized.net/pool_79805333/live/ww/bbc_radio_coventry_warwickshire/bbc_radio_coventry_warwickshire.isml/bbc_radio_coventry_warwickshire-audio%3d96000.norewind.m3u8","lat":52.4068,"lon":-1.5197,"codec":"HLS","geo_confidence":"high"},{"name":"BBC Radio Cymru","url":"http://as-hls-ww-live.akamaized.net/pool_24792333/live/ww/bbc_radio_cymru/bbc_radio_cymru.isml/bbc_radio_cymru-audio%3d96000.norewind.m3u8","lat":53.2274,"lon":-4.1293,"codec":"HLS","geo_confidence":"high"},{"name":"BBC Radio Cymru 2","url":"http://as-hls-ww-live.akamaized.net/pool_98610936/live/ww/bbc_radio_cymru_2/bbc_radio_cymru_2.isml/bbc_radio_cymru_2-audio%3d96000.norewind.m3u8","lat":53.2274,"lon":-4.1293,"codec":"HLS","geo_confidence":"high"},{"name":"Bbc Radio Devon","url":"http://as-hls-ww-live.akamaized.net/pool_08856933/live/ww/bbc_radio_devon/bbc_radio_devon.isml/bbc_radio_devon-audio%3d96000.norewind.m3u8","lat":50.7236,"lon":-3.5275,"codec":"HLS","geo_confidence":"high"},{"name":"Bbc Radio Essex","url":"http://as-hls-ww-live.akamaized.net/pool_23657270/live/ww/bbc_radio_essex/bbc_radio_essex.isml/bbc_radio_essex-audio%3d96000.norewind.m3u8","lat":51.7343,"lon":0.4691,"codec":"HLS","geo_confidence":"high"},{"name":"BBC Radio 5 Live","url":"http://as-hls-ww-live.akamaized.net/pool_89021708/live/ww/bbc_radio_five_live/bbc_radio_five_live.isml/bbc_radio_five_live-audio%3d96000.norewind.m3u8","lat":53.4808,"lon":-2.2426,"codec":"HLS","geo_confidence":"high"},{"name":"BBC Radio 4 Extra","url":"http://as-hls-ww-live.akamaized.net/pool_26173715/live/ww/bbc_radio_four_extra/bbc_radio_four_extra.isml/bbc_radio_four_extra-audio%3d96000.norewind.m3u8","lat":54.551311,"lon":-1.571401,"codec":"HLS","geo_confidence":"high"},{"name":"BBC Radio 4","url":"http://as-hls-ww-live.akamaized.net/pool_55057080/live/ww/bbc_radio_fourfm/bbc_radio_fourfm.isml/bbc_radio_fourfm-audio%3d96000.norewind.m3u8","lat":54.551311,"lon":-1.571401,"codec":"HLS","geo_confidence":"high"},{"name":"BBC Radio Foyle","url":"http://as-hls-ww-live.akamaized.net/pool_43178797/live/ww/bbc_radio_foyle/bbc_radio_foyle.isml/bbc_radio_foyle-audio%3d96000.norewind.m3u8","lat":54.9966,"lon":-7.3086,"codec":"HLS","geo_confidence":"high"},{"name":"Bbc Radio Hereford Worcester","url":"http://as-hls-ww-live.akamaized.net/pool_80112859/live/ww/bbc_radio_hereford_worcester/bbc_radio_hereford_worcester.isml/bbc_radio_hereford_worcester-audio%3d96000.norewind.m3u8","lat":52.1936,"lon":-2.2216,"codec":"HLS","geo_confidence":"high"},{"name":"Bbc Radio Leeds","url":"http://as-hls-ww-live.akamaized.net/pool_50115440/live/ww/bbc_radio_leeds/bbc_radio_leeds.isml/bbc_radio_leeds-audio%3d96000.norewind.m3u8","lat":53.7996,"lon":-1.5491,"codec":"HLS","geo_confidence":"high"},{"name":"BBC Radio nan G\u00e0idheal","url":"http://as-hls-ww-live.akamaized.net/pool_01935182/live/ww/bbc_radio_nan_gaidheal/bbc_radio_nan_gaidheal.isml/bbc_radio_nan_gaidheal-audio%3d96000.norewind.m3u8","lat":57.4778,"lon":-4.2247,"codec":"HLS","geo_confidence":"high"},{"name":"BBC Radio 1","url":"http://as-hls-ww-live.akamaized.net/pool_01505109/live/ww/bbc_radio_one/bbc_radio_one.isml/bbc_radio_one-audio%3d96000.norewind.m3u8","lat":54.551311,"lon":-1.571401,"codec":"HLS","geo_confidence":"high"},{"name":"BBC Radio 1 Anthems","url":"http://as-hls-ww-live.akamaized.net/pool_11351741/live/ww/bbc_radio_one_anthems/bbc_radio_one_anthems.isml/bbc_radio_one_anthems-audio%3d96000.norewind.m3u8","lat":54.551311,"lon":-1.571401,"codec":"HLS","geo_confidence":"high"},{"name":"BBC Radio 1 Dance","url":"http://as-hls-ww-live.akamaized.net/pool_62063831/live/ww/bbc_radio_one_dance/bbc_radio_one_dance.isml/bbc_radio_one_dance-audio%3d96000.norewind.m3u8","lat":54.551311,"lon":-1.571401,"codec":"HLS","geo_confidence":"high"},{"name":"BBC Radio Scotland","url":"http://as-hls-ww-live.akamaized.net/pool_43322914/live/ww/bbc_radio_scotland_fm/bbc_radio_scotland_fm.isml/bbc_radio_scotland_fm-audio%3d96000.norewind.m3u8","lat":55.8609,"lon":-4.255,"codec":"HLS","geo_confidence":"high"},{"name":"Bbc Radio Solent","url":"http://as-hls-ww-live.akamaized.net/pool_11685351/live/ww/bbc_radio_solent/bbc_radio_solent.isml/bbc_radio_solent-audio%3d96000.norewind.m3u8","lat":50.9097,"lon":-1.4044,"codec":"HLS","geo_confidence":"high"},{"name":"BBC Radio 3","url":"http://as-hls-ww-live.akamaized.net/pool_23461179/live/ww/bbc_radio_three/bbc_radio_three.isml/bbc_radio_three-audio%3d96000.norewind.m3u8","lat":54.551311,"lon":-1.571401,"codec":"HLS","geo_confidence":"high"},{"name":"BBC Radio 3 Unwind","url":"http://as-hls-ww-live.akamaized.net/pool_30624046/live/ww/bbc_radio_three_unwind/bbc_radio_three_unwind.isml/bbc_radio_three_unwind-audio%3d96000.norewind.m3u8","lat":54.551311,"lon":-1.571401,"codec":"HLS","geo_confidence":"high"},{"name":"BBC Radio 2","url":"http://as-hls-ww-live.akamaized.net/pool_74208725/live/ww/bbc_radio_two/bbc_radio_two.isml/bbc_radio_two-audio%3d96000.norewind.m3u8","lat":54.551311,"lon":-1.571401,"codec":"HLS","geo_confidence":"high"},{"name":"BBC Radio Ulster","url":"http://as-hls-ww-live.akamaized.net/pool_31244774/live/ww/bbc_radio_ulster/bbc_radio_ulster.isml/bbc_radio_ulster-audio%3d96000.norewind.m3u8","lat":54.5973,"lon":-5.9301,"codec":"HLS","geo_confidence":"high"},{"name":"BBC Radio Wales","url":"http://as-hls-ww-live.akamaized.net/pool_97517794/live/ww/bbc_radio_wales_fm/bbc_radio_wales_fm.isml/bbc_radio_wales_fm-audio%3d96000.norewind.m3u8","lat":51.4816,"lon":-3.1791,"codec":"HLS","geo_confidence":"high"},{"name":"Live News","url":"http://as-hls-ww-live.akamaized.net/pool_53367543/live/ww/bbc_sounds_news/bbc_sounds_news.isml/bbc_sounds_news-audio%3d96000.norewind.m3u8","lat":54.551311,"lon":-1.571401,"codec":"HLS","geo_confidence":"high"},{"name":"Smooth Radio","url":"http://media-the.musicradio.com/SmoothEastMids","lat":51.51014,"lon":-0.12908,"codec":"AAC","geo_confidence":"high"},{"name":"TMM 1","url":"https://listen-msmn.sharp-stream.com/nme1.mp3","lat":51.54618295399013,"lon":-0.1724137666760976,"codec":"MP3","geo_confidence":"low"},{"name":"Virgin Radio UK","url":"http://radio.virginradio.co.uk/stream","lat":51.50554,"lon":-0.08816,"codec":"AAC","geo_confidence":"high"},{"name":"LBC London (National stream)","url":"http://media-ice.musicradio.com/LBCUKMP3Low","lat":51.51014,"lon":-0.12908,"codec":"MP3","geo_confidence":"high"},{"name":"Heart 70s","url":"https://media-ssl.musicradio.com/Heart70sMP3","lat":51.51014,"lon":-0.12908,"codec":"MP3","geo_confidence":"high"},{"name":"talkRADIO","url":"http://radio.talkradio.co.uk/stream","lat":51.506111,"lon":-0.106667,"codec":"AAC","geo_confidence":"high"},{"name":"Gold","url":"https://media-ssl.musicradio.com/GoldMP3","lat":51.51014,"lon":-0.12908,"codec":"MP3","geo_confidence":"high"},{"name":"Retro Soul Radio","url":"http://46.28.49.164:7504/stream","lat":51.54905513348036,"lon":-0.10017681064903196,"codec":"MP3","geo_confidence":"low"},{"name":"Smooth Chill","url":"https://media-ssl.musicradio.com/ChillMP3","lat":51.51014,"lon":-0.12908,"codec":"MP3","geo_confidence":"high"},{"name":"Jazz London Radio","url":"http://radio.canstream.co.uk:8075/live.mp3","lat":51.5074456,"lon":-0.1277653,"codec":"MP3","geo_confidence":"medium"},{"name":"Heart Dance","url":"https://media-ssl.musicradio.com/HeartDanceMP3","lat":51.51014,"lon":-0.12908,"codec":"MP3","geo_confidence":"high"},{"name":"Times Radio UK","url":"http://timesradio.wireless.radio/stream","lat":51.50554,"lon":-0.08816,"codec":"AAC","geo_confidence":"high"},{"name":"TMM 2","url":"https://listen-msmn.sharp-stream.com/nme2.mp3","lat":51.551990967450216,"lon":-0.15326268883302407,"codec":"MP3","geo_confidence":"low"},{"name":"Heart 90s","url":"https://media-ssl.musicradio.com/Heart90sMP3","lat":51.51014,"lon":-0.12908,"codec":"MP3","geo_confidence":"high"},{"name":"RadioX UK","url":"http://icecast.thisisdax.com/RadioXUKMP3","lat":51.51014,"lon":-0.12908,"codec":"MP3","geo_confidence":"high"},{"name":"Kane FM","url":"http://stream.kanefm.com:1037/;stream","lat":51.228367,"lon":-0.605467,"codec":"MP3","geo_confidence":"high"},{"name":"Classic FM Relax","url":"http://media-the.musicradio.com/ClassicFM-M-Relax","lat":53.47754987338384,"lon":-2.04107820304485,"codec":"AAC","geo_confidence":"low"},{"name":"LBC London (London stream) AAC","url":"http://media-sov.musicradio.com/LBCLondon","lat":54.4974026,"lon":-6.0330739,"codec":"AAC","geo_confidence":"medium"},{"name":"LBC London News","url":"http://media-ice.musicradio.com/LBC1152","lat":51.51014,"lon":-0.12908,"codec":"AAC","geo_confidence":"high"},{"name":"Heart London 106.2 [AAC]","url":"http://media-ice.musicradio.com/HeartLondon","lat":51.51014,"lon":-0.12908,"codec":"AAC","geo_confidence":"high"},{"name":"talkSPORT 2","url":"http://radio.talksport.com/stream2?awparams=platform:ts-web&amsparams=playerid:ts-web;","lat":52.300529595746454,"lon":-2.0965987410191587,"codec":"MP3","geo_confidence":"low"},{"name":"Heart UK","url":"http://media-ice.musicradio.com/HeartUKMP3","lat":51.51014,"lon":-0.12908,"codec":"MP3","geo_confidence":"high"},{"name":"Techno.FM","url":"http://stream.techno.fm/radio.mp3","lat":51.290199320675846,"lon":-0.7559412083985426,"codec":"MP3","geo_confidence":"low"},{"name":"BEST SMOOTH JAZZ - UK","url":"http://64.95.243.43:8002/stream","lat":51.5074456,"lon":-0.1277653,"codec":"MP3","geo_confidence":"medium"},{"name":"LBC London (London stream) MP3","url":"http://media-ice.musicradio.com/LBCLondonMP3Low","lat":54.4974026,"lon":-6.0330739,"codec":"MP3","geo_confidence":"medium"},{"name":"1Mix Radio Trance","url":"http://fr2.1mix.co.uk:8000/192","lat":53.48167832068556,"lon":-1.9585833832071122,"codec":"MP3","geo_confidence":"low"},{"name":"Capital UK","url":"http://vis.media-ice.musicradio.com/CapitalUK","lat":51.51014,"lon":-0.12908,"codec":"AAC","geo_confidence":"high"},{"name":"Radio X","url":"http://media-the.musicradio.com/RadioXUK","lat":51.51014,"lon":-0.12908,"codec":"AAC","geo_confidence":"high"},{"name":"Celtic Music Radio","url":"http://stream.celticmusicradio.net:8000/celticmusic.mp3","lat":55.8612,"lon":-4.2435,"codec":"MP3","geo_confidence":"high"},{"name":"LOVE.radio Only Love Songs 70s80s90s","url":"https://loveradio.streamingmedia.it/england","lat":53.48529740387115,"lon":-1.975722809105814,"codec":"AAC+","geo_confidence":"low"},{"name":"Radio X Manchester","url":"http://media-the.musicradio.com/RadioXManchester","lat":53.471264436906274,"lon":-2.2363228263411026,"codec":"AAC","geo_confidence":"low"},{"name":"Classic FM at the Movies","url":"http://media-sov.musicradio.com/ClassicFM-M-Movies","lat":51.51014,"lon":-0.12908,"codec":"AAC","geo_confidence":"high"},{"name":"BBC News HD (720P)","url":"https://vs-hls-push-ww-live.akamaized.net/x=4/i=urn:bbc:pips:service:bbc_news_channel_hd/t=3840/v=pv14/b=5070016/main.m3u8","lat":52.49419283182341,"lon":-1.5363074969386934,"codec":"UNKNOWN","geo_confidence":"low"},{"name":"GBNews","url":"http://listen-gbnews.sharp-stream.com/gbnews.mp3","lat":53.554887257157795,"lon":-1.978468694527044,"codec":"MP3","geo_confidence":"low"},{"name":"DanceRadioUK - Dance UK","url":"http://uk2.internet-radio.com:8024/stream","lat":53.47529402799213,"lon":-1.9502043571707803,"codec":"AAC+","geo_confidence":"low"},{"name":"Linn Jazz","url":"http://radio.linn.co.uk:8000/autodj","lat":55.75663,"lon":-4.288316,"codec":"MP3","geo_confidence":"high"},{"name":"Linn Classical","url":"http://radio.linn.co.uk:8004/autodj","lat":55.756575,"lon":-4.28869,"codec":"MP3","geo_confidence":"medium"},{"name":"Exclusively Dire Straits","url":"https://streaming.exclusive.radio/er/direstraits/icecast.audio","lat":53.47582683775594,"lon":-1.95493374888318,"codec":"MP3","geo_confidence":"low"},{"name":"Virgin Radio Chilled","url":"https://radio.virginradio.co.uk/stream-chilled?aw_0_1st.platform=vr-web","lat":51.50554,"lon":-0.08816,"codec":"AAC","geo_confidence":"high"},{"name":"Capital Dance","url":"https://icecast.thisisdax.com/CapitalDanceMP3","lat":51.51014,"lon":-0.12908,"codec":"MP3","geo_confidence":"high"},{"name":"Gold AM 1548 London","url":"http://media-ice.musicradio.com/GoldMP3","lat":51.51014,"lon":-0.12908,"codec":"MP3","geo_confidence":"high"},{"name":"BBC World Service for East Asia","url":"https://stream.live.vc.bbcmedia.co.uk/bbc_world_service_east_asia","lat":51.52265794153295,"lon":-0.14070066539394566,"codec":"MP3","geo_confidence":"low"},{"name":"Smooth Radio London 102.2","url":"http://media-the.musicradio.com/SmoothLondonMP3","lat":51.51014,"lon":-0.12908,"codec":"MP3","geo_confidence":"high"},{"name":"Hard Rock Hell","url":"http://andromeda.shoutca.st:9254/stream","lat":50.7981803,"lon":-1.4213001,"codec":"MP3","geo_confidence":"medium"},{"name":"Radio X London (MP3)","url":"http://media-the.musicradio.com/RadioXLondonMP3","lat":51.51014,"lon":-0.12908,"codec":"MP3","geo_confidence":"high"},{"name":"TruckersFM","url":"http://radio.truckers.fm/","lat":51.341462923276616,"lon":0.6994244041531473,"codec":"MP3","geo_confidence":"low"},{"name":"Dance UK Radio danceradiouk","url":"http://51.89.148.171:8022/stream","lat":53.52255855891099,"lon":-1.9696973434986307,"codec":"MP3","geo_confidence":"low"},{"name":"Deepvibes Radio","url":"http://88.208.218.19:8090/stream","lat":53.44609425101688,"lon":-2.0395371506513413,"codec":"MP3","geo_confidence":"low"},{"name":"NTS Radio 1","url":"http://stream-relay-geo.ntslive.net/stream","lat":51.46889932315072,"lon":-0.13205917108502685,"codec":"MP3","geo_confidence":"low"},{"name":"Chill","url":"http://media-ice.musicradio.com/ChillMP3","lat":51.51014,"lon":-0.12908,"codec":"MP3","geo_confidence":"high"},{"name":"Radio Caroline Flashback","url":"http://sc2.radiocaroline.net:10558/;","lat":53.480557353705066,"lon":-1.953117082335082,"codec":"MP3","geo_confidence":"low"},{"name":"Times Radio (UK) 48k AAC","url":"http://timesradio.wireless.radio/stream-mobile?ref=rf","lat":51.50554,"lon":-0.08816,"codec":"AAC+","geo_confidence":"high"},{"name":"1Mix Radio - Trance (UK) 32kb aac+","url":"http://fr2.1mix.co.uk:9000/aacb","lat":53.54167519154881,"lon":-1.9685780921470324,"codec":"AAC+","geo_confidence":"low"},{"name":"Exclusively Supertramp","url":"https://streaming.exclusive.radio/er/supertramp/icecast.audio","lat":53.47973908083158,"lon":-2.011219021886638,"codec":"MP3","geo_confidence":"low"},{"name":"NonStopPlay Dance Radio","url":"http://stream.nonstopplay.co.uk/nsp-192k-mp3","lat":53.45191690473745,"lon":-2.0411419635000967,"codec":"MP3","geo_confidence":"low"},{"name":"Radio Caroline AAC 96 kbps","url":"http://78.129.202.200:8030/;","lat":53.539049631677116,"lon":-2.0377769833763075,"codec":"AAC+","geo_confidence":"low"},{"name":"Naim Radio [lossless flac]","url":"http://mscp3.live-streams.nl:8360/flac.flac","lat":51.059351,"lon":-1.806791,"codec":"OGG","geo_confidence":"high"},{"name":"BritCom 2 - Pumpkin FM","url":"https://cast2.asurahosting.com/proxy/britcom2/stream","lat":51.55261947394875,"lon":-0.1046349157601676,"codec":"MP3","geo_confidence":"low"},{"name":"NTS Radio 2","url":"http://stream-relay-geo.ntslive.net/stream2","lat":51.55133819681856,"lon":-0.10521229755603995,"codec":"MP3","geo_confidence":"low"},{"name":"Naim Classical","url":"http://mscp3.live-streams.nl:8250/class-high.aac","lat":52.47893456986964,"lon":-1.4463858094791384,"codec":"AAC","geo_confidence":"low"},{"name":"London Soul Radio","url":"http://londonsoulradio.out.airtime.pro:8000/londonsoulradio_a","lat":51.5074456,"lon":-0.1277653,"codec":"MP3","geo_confidence":"medium"},{"name":"Exclusively AC/DC","url":"https://nl4.mystreaming.net/er/acdc/icecast.audio","lat":53.478245221179264,"lon":-1.9607000018064167,"codec":"MP3","geo_confidence":"low"},{"name":"1Mix Radio - Trance (UK) 320kb mp3","url":"http://fr2.1mix.co.uk:9000/320b","lat":53.45827552328661,"lon":-2.0293580106958653,"codec":"MP3","geo_confidence":"low"},{"name":"British Comedy 1","url":"http://streaming04.liveboxstream.uk:8077/stream","lat":53.514392947894386,"lon":-1.9475416445738034,"codec":"MP3","geo_confidence":"low"},{"name":"SOUL RADIO Only Classic Soul","url":"https://listen.soulradio.uk/uk","lat":51.40520022031972,"lon":-2.5819864713277174,"codec":"AAC+","geo_confidence":"low"},{"name":"1Mix Radio - Trance #1 (UK) 320kb mp3","url":"http://fr2.1mix.co.uk:9000/320","lat":53.452231840644316,"lon":-1.9761407022623207,"codec":"MP3","geo_confidence":"low"},{"name":"LBC News","url":"https://media-ssl.musicradio.com/LBCNewsUK","lat":51.51014,"lon":-0.12908,"codec":"AAC","geo_confidence":"high"},{"name":"sky news UK","url":"https://tunein.cdnstream1.com/3688_96.mp3?aw_0_1st.skey=1718490659&aw_0_1st.abtest=&aw_0_1st.stationId=s2583&aw_0_1st.premium=false&source=TuneIn&aw_0_1st.platform=tunein&aw_0_1st.genre_id=g255&aw_0_1st.class=talk&aw_0_1st.ads_partner_alias=ce.Other&aw_0_azn.planguage=en","lat":51.489364,"lon":-0.327573,"codec":"MP3","geo_confidence":"medium"},{"name":"DnB Liquified","url":"http://antares.dribbcast.com:5000/stream","lat":53.55456222248254,"lon":-2.041838519204603,"codec":"MP3","geo_confidence":"low"},{"name":"England - Heart London Radio","url":"http://ice-the.musicradio.com/HeartLondonMP3","lat":52.5310214,"lon":-1.2649062,"codec":"MP3","geo_confidence":"medium"},{"name":"House Nation UK","url":"https://streaming.radio.co/s06bd9d805/listen","lat":53.53605624795683,"lon":-2.0492814214141766,"codec":"MP3","geo_confidence":"low"},{"name":"British Comedy 2","url":"http://streaming05.liveboxstream.uk:8009/stream","lat":53.55486984531858,"lon":-1.9615771237706248,"codec":"MP3","geo_confidence":"low"},{"name":"Boom Radio","url":"https://listen-boomradio.sharp-stream.com/65_boom_radio_live_128","lat":52.95505,"lon":-1.14103,"codec":"MP3","geo_confidence":"medium"},{"name":"BritCom 1 - British Comedy Radio  (Pumpkin FM OTRN)","url":"https://cast2.asurahosting.com/proxy/britcom1/stream","lat":51.53896699249255,"lon":-0.1323670076223479,"codec":"MP3","geo_confidence":"low"},{"name":"ROKiT Radio : Science Fiction","url":"http://streaming05.liveboxstream.uk:8110/stream","lat":51.506877,"lon":-0.122467,"codec":"MP3","geo_confidence":"high"},{"name":"Radio X Classic Rock","url":"https://media-ice.musicradio.com/RadioXClassicRockMP3","lat":51.51014,"lon":-0.12908,"codec":"MP3","geo_confidence":"high"},{"name":"BFBS Afghanistan","url":"http://tx.sharp-stream.com/icecast.php?i=ssvcbfbs7.aac","lat":51.791921,"lon":-0.9022301,"codec":"AAC+","geo_confidence":"medium"},{"name":"Heart Xmas","url":"http://icecast.thisisdax.com/HeartXmasMP3","lat":51.51014,"lon":-0.12908,"codec":"MP3","geo_confidence":"high"},{"name":"Bailiwick Radio Classics","url":"http://streaming.radio.co/s20224a067/listen","lat":53.45670136855489,"lon":-2.008327598851949,"codec":"AAC","geo_confidence":"low"},{"name":"Slow Focus | NTS","url":"https://stream-mixtape-geo.ntslive.net/mixtape","lat":51.54524779752485,"lon":-0.09101641680254051,"codec":"MP3","geo_confidence":"low"},{"name":"Sonatica Classical Radio","url":"http://orion.shoutca.st:8742/160","lat":53.49612296942182,"lon":-1.9899836757930423,"codec":"MP3","geo_confidence":"low"},{"name":"DubTerrain","url":"http://ic2255.c471.fast-serv.com/listen","lat":54.9738474,"lon":-1.6131572,"codec":"MP3","geo_confidence":"medium"},{"name":"BritCom 3 - British Comedy Radio (Pumpkin FM OTRN)","url":"https://cast2.asurahosting.com/proxy/britcom3/stream","lat":51.45769013929593,"lon":-0.07458477640049177,"codec":"MP3","geo_confidence":"low"},{"name":"Heart Essex 96.3 & 102.6","url":"http://ice-sov.musicradio.com/HeartEssexMP3","lat":51.53207255842561,"lon":0.7105249878680393,"codec":"MP3","geo_confidence":"low"},{"name":"Resonance FM 104.4 - London","url":"http://stream.resonance.fm:8000/resonance","lat":51.50343,"lon":-0.10018,"codec":"MP3","geo_confidence":"medium"},{"name":"UK Bass Radio","url":"https://www.ukbassradio.com/stream","lat":53.5239088769208,"lon":-2.0515250321516127,"codec":"MP3","geo_confidence":"low"},{"name":"1Mix Radio - House (UK) 320kb mp3","url":"http://fr2.1mix.co.uk:9000/320hb","lat":53.51831096902334,"lon":-1.9654985441687745,"codec":"MP3","geo_confidence":"low"},{"name":"box uk","url":"https://boxstream.danceradiouk.com/stream","lat":51.4211867,"lon":-2.2502457,"codec":"MP3","geo_confidence":"medium"},{"name":"Fun Kids","url":"https://listen-funkids.sharp-stream.com/funkids.mp3","lat":53.54348949806031,"lon":-2.0329090513074557,"codec":"MP3","geo_confidence":"low"},{"name":"Magic Radio UK","url":"https://stream-mz.hellorayo.co.uk/magicnational.mp3?direct=true&aw_0_1st.playerid=BMUK_TuneIn&aw_0_1st.skey=7374499933&stationCode=mag","lat":51.512092,"lon":-0.136942,"codec":"MP3","geo_confidence":"high"},{"name":"Capital Chill","url":"https://media-ssl.musicradio.com/CapitalChill","lat":51.51014,"lon":-0.12908,"codec":"AAC","geo_confidence":"high"},{"name":"ROKit Radio : British Comedy 1","url":"https://streaming04.liveboxstream.uk/proxy/roksta14/stream","lat":51.556738210443115,"lon":-0.12949952215293878,"codec":"MP3","geo_confidence":"low"},{"name":"1Mix Radio - EDM (UK) 32kb aac+","url":"http://fr2.1mix.co.uk:9000/aach","lat":53.48810118167035,"lon":-1.9716526485203423,"codec":"AAC+","geo_confidence":"low"},{"name":"HearMe - Classic Hard Rock","url":"https://radio.hearme.fm:8250/stream","lat":50.7981803,"lon":-1.4213001,"codec":"MP3","geo_confidence":"medium"},{"name":"Heart FM Glasgow","url":"http://media-the.musicradio.com/HeartGlasgow?amsparams=playerid:UKRP;skey:1546958888&aw_0_req.gdpr=true&aw_0_1st.playerid=UKRP&amp;aw_0_1st.ts=1546958886&nmcuid=null&aw_0_1st.nmc=%5B%22%22%5D","lat":51.51014,"lon":-0.12908,"codec":"AAC","geo_confidence":"high"},{"name":"Naim Jazz","url":"http://mscp3.live-streams.nl:8340/jazz-flac.flac","lat":51.059351,"lon":-1.817693,"codec":"OGG","geo_confidence":"high"},{"name":"Heart Suffolk","url":"http://ice-sov.musicradio.com/HeartSuffolkMP3","lat":51.51014,"lon":-0.12908,"codec":"MP3","geo_confidence":"high"},{"name":"100% Hip Hop | NTS","url":"https://stream-mixtape-geo.ntslive.net/mixtape2","lat":51.487611106938594,"lon":-0.11732692965360518,"codec":"MP3","geo_confidence":"low"},{"name":"Classic FM Calm","url":"https://media-ice.musicradio.com/ClassicFMCalmMP3","lat":51.51014,"lon":-0.12908,"codec":"MP3","geo_confidence":"high"},{"name":"Diva Radio - Funk & Disco Music Paradise","url":"https://stream.deevaradio.net:10443/divaradiofunk","lat":52.4281301,"lon":-1.4880354,"codec":"MP3","geo_confidence":"medium"},{"name":"24-7 Psychedelic Rock","url":"http://antares.dribbcast.com:4289/stream","lat":53.48463037776985,"lon":-1.9485294751202522,"codec":"MP3","geo_confidence":"low"},{"name":"Nation 60s","url":"https://listen-nation.sharp-stream.com/nation60s.mp3","lat":56.45786513333276,"lon":-4.203585083335309,"codec":"MP3","geo_confidence":"low"},{"name":"Radio X 90s","url":"http://media-ice.musicradio.com/RadioX90sMP3","lat":51.51014,"lon":-0.12908,"codec":"MP3","geo_confidence":"high"},{"name":"Smooth Relax","url":"https://icecast.thisisdax.com/SmoothRelaxMP3","lat":51.51014,"lon":-0.12908,"codec":"MP3","geo_confidence":"high"},{"name":"Kool FM","url":"https://admin.stream.rinse.fm/proxy/kool/stream","lat":52.587399,"lon":-1.830873,"codec":"AAC+","geo_confidence":"medium"},{"name":"60 NORTH RADIO - FLAC","url":"http://r5.zetcast.net/flac","lat":60.397046681957164,"lon":-1.355953669285731,"codec":"OGG","geo_confidence":"low"},{"name":"1Mix Radio - Trance #1 (UK) 32kb aac+","url":"http://fr2.1mix.co.uk:9000/aac","lat":53.46790817006559,"lon":-2.0260307429826425,"codec":"AAC+","geo_confidence":"low"},{"name":"ROKit Radio : British Comedy 2","url":"https://streaming05.liveboxstream.uk/proxy/jondreas/stream","lat":51.54898867896502,"lon":-0.13102546652686442,"codec":"MP3","geo_confidence":"low"},{"name":"Virgin Radio Anthems","url":"https://radio.virginradio.co.uk/stream-anthems","lat":51.50554,"lon":-0.08816,"codec":"AAC","geo_confidence":"high"},{"name":"NonStopPlay Pure Dance","url":"http://stream.nonstopplay.co.uk/nsppd-32k-aac","lat":53.547132116379714,"lon":-1.9607515859500857,"codec":"AAC+","geo_confidence":"low"},{"name":"gb news","url":"http://listen-gbnews.sharp-stream.com/gbnews.aac?ref=RF","lat":51.49032717094066,"lon":-0.15793171318083343,"codec":"AAC+","geo_confidence":"low"},{"name":"CNN UK","url":"https://tunein.cdnstream1.com/2868_96.mp3","lat":51.554871168018984,"lon":-0.08215556855480083,"codec":"MP3","geo_confidence":"low"},{"name":"Street Sounds Radio","url":"https://streaming.broadcastradio.com:10525/streetsd","lat":51.719202,"lon":0.475708,"codec":"MP3","geo_confidence":"high"},{"name":"FUNK2DISCO","url":"http://stream.laut.fm/funk2disco","lat":51.50070351325225,"lon":-0.12248753302439291,"codec":"MP3","geo_confidence":"low"},{"name":"Classic FM HD","url":"https://ice-sov.musicradio.com/ClassicFMHD?hdauth=:2000000000:a290d4b39a16153061d4c743008b9fe8d424a7e5ec6469d40acf51fdcd336e80","lat":51.51014,"lon":-0.12908,"codec":"AAC","geo_confidence":"high"},{"name":"Smooth Country","url":"https://media-ssl.musicradio.com/SmoothCountry","lat":51.51014,"lon":-0.12908,"codec":"AAC","geo_confidence":"high"},{"name":"BBC for Australasia","url":"https://stream.live.vc.bbcmedia.co.uk/bbc_world_service_australasia","lat":53.51673579452367,"lon":-1.9890259187072576,"codec":"MP3","geo_confidence":"low"},{"name":"London Music Radio","url":"https://radiobossrelay.radioca.st/stream","lat":51.5074456,"lon":-0.1277653,"codec":"MP3","geo_confidence":"medium"},{"name":"HypeDem Reggae Radio","url":"https://mrwolfman2.radioca.st/;","lat":53.54046617603057,"lon":-2.024679685009103,"codec":"MP3","geo_confidence":"low"},{"name":"45 Radio","url":"https://stream1.themediasite.co.uk:7009/stream","lat":51.735042377541824,"lon":-0.17019869697228626,"codec":"MP3","geo_confidence":"low"},{"name":"KISS UK","url":"https://live-kiss.sharp-stream.com/kiss100.mp3","lat":51.51598,"lon":-0.13844,"codec":"MP3","geo_confidence":"high"},{"name":"Linn Radio","url":"http://radio.linn.co.uk:8003/autodj","lat":53.3780154830151,"lon":-1.5098271795908844,"codec":"MP3","geo_confidence":"low"},{"name":"DjRemix Club","url":"http://curiosity.shoutca.st:8114/;","lat":53.46768419020174,"lon":-2.004919818413891,"codec":"MP3","geo_confidence":"low"},{"name":"Joy Hits UK","url":"http://joyhits.online/joyhitshq.mp3","lat":53.47340669508754,"lon":-2.037096256881975,"codec":"MP3","geo_confidence":"low"},{"name":"24-7 Reggae","url":"http://antares.dribbcast.com:4346/stream","lat":51.386122,"lon":-0.110828,"codec":"MP3","geo_confidence":"medium"},{"name":"60s Swinging Radio","url":"http://s2.xrad.io:8058/stream","lat":53.52888046212585,"lon":-1.9621578889566376,"codec":"MP3","geo_confidence":"low"},{"name":"Surf Rock Radio","url":"http://139.162.89.191:8020/radio.mp3","lat":53.47105656038412,"lon":-1.9676480279193838,"codec":"MP3","geo_confidence":"low"},{"name":"ARfm","url":"http://108.163.245.230:9016/stream","lat":53.47004294958549,"lon":-1.9517436411759685,"codec":"MP3","geo_confidence":"low"},{"name":"Intamixx 80s 90s Radio UK","url":"https://radio.intamixx.uk:8443/radio2","lat":51.54885868271553,"lon":-0.07198129376093422,"codec":"MP3","geo_confidence":"low"},{"name":"Resonance Extra","url":"http://stream.resonance.fm:8000/resonance-extra","lat":51.493115576866224,"lon":-0.09221685854944328,"codec":"MP3","geo_confidence":"low"},{"name":"Rinse UK","url":"https://admin.stream.rinse.fm/proxy/rinse_uk/stream","lat":51.52085094046481,"lon":-0.09490259081098892,"codec":"AAC+","geo_confidence":"low"},{"name":"Classic FM Movies","url":"https://media-ice.musicradio.com/ClassicFMMoviesMP3","lat":51.51014,"lon":-0.12908,"codec":"MP3","geo_confidence":"high"},{"name":"KICKS fm","url":"https://s6.citrus3.com:8452/stream","lat":51.456341524647165,"lon":-0.09409651872913738,"codec":"MP3","geo_confidence":"low"},{"name":"1Mix Radio - EDM (UK) 192kb mp3","url":"http://fr2.1mix.co.uk:9000/192h","lat":53.50806555821166,"lon":-2.035245030093995,"codec":"MP3","geo_confidence":"low"},{"name":"Radio Essex","url":"https://stream.aiir.com/ujzy590c3stvv","lat":51.533,"lon":0.7133,"codec":"MP3","geo_confidence":"high"},{"name":"Energy FM - Dance Music Radio","url":"https://radio.streemlion.com:1875/stream","lat":52.52772378661966,"lon":-1.462960410504127,"codec":"MP3","geo_confidence":"low"},{"name":"Classic FM Essential Classical","url":"https://icecast.thisisdax.com/ClassicFM-M-Essential","lat":51.51014,"lon":-0.12908,"codec":"AAC","geo_confidence":"high"},{"name":"1940s Radio HS - Pumpkin FM","url":"https://cast2.asurahosting.com/proxy/1940sradio/stream","lat":55.996012528271734,"lon":-4.101893954339751,"codec":"MP3","geo_confidence":"low"},{"name":"Expansions | NTS","url":"https://stream-mixtape-geo.ntslive.net/mixtape3","lat":51.54009617962178,"lon":-0.11814926105857576,"codec":"MP3","geo_confidence":"low"},{"name":"Capital FM Manchester","url":"http://ice-the.musicradio.com/CapitalManchester","lat":51.51014,"lon":-0.12908,"codec":"AAC","geo_confidence":"high"},{"name":"Radio X Chilled","url":"http://media-ice.musicradio.com/RadioXChilledMP3","lat":51.51014,"lon":-0.12908,"codec":"MP3","geo_confidence":"high"},{"name":"LABR Love a Brother Radio","url":"http://23.81.33.82:24914/stream","lat":53.510948277759816,"lon":-1.9457342430159297,"codec":"MP3","geo_confidence":"low"},{"name":"Reprezent Radio","url":"https://radio.canstream.co.uk:8022/live.mp3","lat":51.4635,"lon":-0.1123,"codec":"MP3","geo_confidence":"high"},{"name":"Matryoshka.FM (\u041c\u0430\u0442\u0440\u0451\u0448\u043a\u0430)","url":"http://213.159.214.57:8000/matryoshka","lat":51.465456986237655,"lon":-0.0957903366491176,"codec":"MP3","geo_confidence":"low"},{"name":"Point Blank FM 320KB","url":"http://pointblankradio.co.uk:9002/stream","lat":51.51428362668126,"lon":-0.1624085438408443,"codec":"MP3","geo_confidence":"low"},{"name":"Psychedelicized Radio","url":"https://cast1.asurahosting.com/proxy/psychedelicized/stream","lat":51.46172464985208,"lon":-0.16314922750185926,"codec":"MP3","geo_confidence":"low"},{"name":"Gold London","url":"https://media-ssl.musicradio.com/Gold?isLoggedIn=false&dax_version=release_2019&dax_player=GlobalPlayer&dax_platform=Web&aisDelivery=streaming&listenerid=1612127423858_0.6253666805372976&aw_0_1st.playerid=GlobalPlayer&aw_0_1st.skey=1612127423&aw_0_req.userConsentV2=CPA5x3uPA5x3uAGABCENBLCgAAAAAAAAAATIAAAAAAAA.YAAAAAAAAAAA","lat":51.5074456,"lon":-0.1277653,"codec":"AAC","geo_confidence":"medium"},{"name":"CruiseOne Radio","url":"https://solid24.streamupsolutions.com/proxy/cmxicxxx?mp=/256kbps","lat":51.45515,"lon":-2.593117,"codec":"MP3","geo_confidence":"high"},{"name":"Lyca Radio","url":"http://ads-direct.sharp-stream.com/1458.mp3","lat":53.54945456150325,"lon":-2.043139168109777,"codec":"MP3","geo_confidence":"low"},{"name":"Greatest Hits Non-Stop","url":"https://s8.myradiostream.com/58238//listen.mp3","lat":52.233057967452076,"lon":1.0979485485300766,"codec":"MP3","geo_confidence":"low"},{"name":"ROKiT Radio : American Comedy","url":"http://streaming04.liveboxstream.uk:8162/stream","lat":53.546667730159044,"lon":-1.9604156352219675,"codec":"MP3","geo_confidence":"low"},{"name":"24-7 Legends Classic Rock","url":"http://antares.dribbcast.com:4330/stream","lat":53.46588853663087,"lon":-1.9611550768339436,"codec":"MP3","geo_confidence":"low"},{"name":"Radio Central 24","url":"http://138.201.52.248:8459/stream","lat":53.54101441098517,"lon":-1.9902317603619841,"codec":"MP3","geo_confidence":"low"},{"name":"24-7 Dreamboats And Petticoats","url":"http://antares.dribbcast.com:4231/stream","lat":53.488618367268614,"lon":-2.0519893526791106,"codec":"MP3","geo_confidence":"low"},{"name":"Groove London Radio","url":"http://eu10.fastcast4u.com/groovelondon","lat":51.5074456,"lon":-0.1277653,"codec":"MP3","geo_confidence":"medium"},{"name":"Q Radio Belfast","url":"http://edge-audio-02-gos1.sharp-stream.com/qr967.mp3","lat":54.5975805,"lon":-5.9277097,"codec":"MP3","geo_confidence":"medium"},{"name":"London Greek Radio (LGR)","url":"http://eco.onestreaming.com:8203/stream","lat":51.6022,"lon":-0.1743,"codec":"MP3","geo_confidence":"high"},{"name":"The English 909 Radio","url":"https://www.radioking.com/play/the-english-909","lat":51.4674040406331,"lon":-0.07453254761861929,"codec":"MP3","geo_confidence":"low"},{"name":"Birdsong Radio","url":"https://a1.radio.co/s5c5da6a36/listen","lat":53.473449656471715,"lon":-2.0020343135011,"codec":"MP3","geo_confidence":"low"},{"name":"Classic FM Video Game Music","url":"https://icecast.thisisdax.com/ClassicFM-M-Gaming","lat":51.51014,"lon":-0.12908,"codec":"AAC","geo_confidence":"high"},{"name":"ROKit Radio : Comedy Gold","url":"https://streaming06.liveboxstream.uk/proxy/rokstar8/stream","lat":51.51322209833964,"lon":-0.15203609911888746,"codec":"MP3","geo_confidence":"low"},{"name":"4 To The Floor | NTS","url":"https://stream-mixtape-geo.ntslive.net/mixtape5","lat":51.46104762686441,"lon":-0.1584073079362063,"codec":"MP3","geo_confidence":"low"},{"name":"Just House Music","url":"https://justhousemusic.radioca.st/stream","lat":51.496374,"lon":-0.130463,"codec":"MP3","geo_confidence":"high"},{"name":"Heart Torbay 96.4","url":"http://media-sov.musicradio.com/HeartTorbay","lat":51.51014,"lon":-0.12908,"codec":"AAC","geo_confidence":"high"},{"name":"Smooth Radio (London, UK) 48k aac+","url":"http://media-the.musicradio.com/SmoothLondon","lat":51.51014,"lon":-0.12908,"codec":"AAC","geo_confidence":"high"},{"name":"Poolside | NTS","url":"https://stream-mixtape-geo.ntslive.net/mixtape4","lat":51.548139122391156,"lon":-0.12340941754365559,"codec":"MP3","geo_confidence":"low"},{"name":"ROKit Radio : Classic Old Time Radio Shows","url":"https://streaming04.liveboxstream.uk/proxy/roksta18/stream","lat":52.3563851,"lon":-0.8394718,"codec":"MP3","geo_confidence":"medium"},{"name":"Joyhits UK FLAC","url":"https://joyhits.online/joyhits.flac.ogg","lat":53.45254254596251,"lon":-1.9839919185147137,"codec":"OGG","geo_confidence":"low"},{"name":"Totally 80s Radio","url":"https://ukstream.radiohost.co.uk/listen/totally_80s_radio/radio.mp3","lat":53.53092649189428,"lon":-2.0411725052134533,"codec":"MP3","geo_confidence":"low"},{"name":"U105","url":"http://gbradio.cdn.tibus.net/U105?ref=rf","lat":54.596667,"lon":-5.93,"codec":"AAC","geo_confidence":"high"},{"name":"Tonic Ska Radio","url":"https://eu10.fastcast4u.com/tonicska","lat":51.507354,"lon":-0.127641,"codec":"MP3","geo_confidence":"high"},{"name":"Joy Hits Flac","url":"http://joyhits.online/joyhits.flac.ogg","lat":53.47618297833744,"lon":-1.9971788694598198,"codec":"OGG","geo_confidence":"low"},{"name":"Redroad FM 102.4","url":"http://s45.myradiostream.com:13784/;","lat":53.33938014422941,"lon":-1.2811880452876345,"codec":"MP3","geo_confidence":"low"},{"name":"Aah Classical Radio - Bach","url":"https://radio.hearme.fm:9040/stream","lat":53.51101334185945,"lon":-2.004941888782182,"codec":"MP3","geo_confidence":"low"},{"name":"ROKit Radio : Adventure Stories","url":"https://streaming06.liveboxstream.uk/proxy/rokstar7/stream","lat":51.507478,"lon":-0.123878,"codec":"MP3","geo_confidence":"high"},{"name":"camfm Cambridge University Student Radio","url":"http://stream.camfm.co.uk/camfm","lat":51.50558888626334,"lon":-3.5684318594243805,"codec":"MP3","geo_confidence":"low"},{"name":"The Tube | NTS","url":"https://stream-mixtape-geo.ntslive.net/mixtape26","lat":51.52806937331987,"lon":-0.16366441451680483,"codec":"MP3","geo_confidence":"low"},{"name":"Gaydio Brighton","url":"http://stream.gaydio.co.uk/gaydiosc.mp3","lat":50.96133272953246,"lon":-0.1268829550054164,"codec":"MP3","geo_confidence":"low"},{"name":"JFSR - Jazz Funk Soul Radio","url":"https://s2.radio.co/s22ae5a8a6/listen","lat":55.098487,"lon":-2.944336,"codec":"AAC","geo_confidence":"high"},{"name":"Flashback Radio","url":"https://live.flashbackcentral.co.uk/radio/8000/apple","lat":53.49916225371281,"lon":-2.0200030110252563,"codec":"AAC","geo_confidence":"low"},{"name":"Memory Lane | NTS","url":"https://stream-mixtape-geo.ntslive.net/mixtape6","lat":53.5471333,"lon":-1.8459229,"codec":"MP3","geo_confidence":"medium"},{"name":"Heart Sussex 102.4 &103.5","url":"http://media-ice.musicradio.com/HeartSussexMP3?.mp3","lat":50.84113047746816,"lon":-0.21481528384699844,"codec":"MP3","geo_confidence":"low"},{"name":"Capital FM AAC","url":"http://ice-the.musicradio.com/Capital","lat":51.51014,"lon":-0.12908,"codec":"AAC","geo_confidence":"high"},{"name":"Actual Radio","url":"https://securestreams.autopo.st:1174/;","lat":51.889261,"lon":0.904472,"codec":"MP3","geo_confidence":"high"},{"name":"Islands FM","url":"http://radio.canstream.co.uk:8040/live.mp3","lat":49.929241,"lon":-6.303709,"codec":"MP3","geo_confidence":"high"},{"name":"America's Greatest 70s Hits","url":"http://hydra.cdnstream.com/1823_128","lat":53.448969473425294,"lon":-2.0074484448303584,"codec":"MP3","geo_confidence":"low"},{"name":"Pink Floyd","url":"https://stream.pcradio.ru/Pink_Floyd-hi","lat":53.51771156390727,"lon":-2.042956093037025,"codec":"AAC","geo_confidence":"low"},{"name":"PsyStream","url":"http://radio.psymusic.co.uk:8040/radio1_192k.mp3","lat":53.469728746138216,"lon":-1.9947858417801994,"codec":"AAC","geo_confidence":"low"},{"name":"Subtle Radio","url":"https://subtle.out.airtime.pro/subtle_a","lat":51.534525840828316,"lon":-0.06449136034108031,"codec":"MP3","geo_confidence":"low"},{"name":"24-7 Rock \u2018n\u2019 Roll","url":"http://antares.dribbcast.com:4266/stream","lat":53.47322899650741,"lon":-1.9852237698226758,"codec":"MP3","geo_confidence":"low"},{"name":"The Voice Of Doom","url":"https://streaming.galaxywebsolutions.com:9046/stream","lat":51.087942916709686,"lon":-4.068687973437292,"codec":"AAC","geo_confidence":"low"},{"name":"Field Recordings | NTS","url":"https://stream-mixtape-geo.ntslive.net/mixtape23","lat":51.52954961494532,"lon":-0.07808038506728605,"codec":"MP3","geo_confidence":"low"},{"name":"DnBRadio.com","url":"https://fw.dnbradio.com/dnbradio_main.mp3","lat":53.47201557777986,"lon":-2.003724642127921,"codec":"MP3","geo_confidence":"low"},{"name":"DnB station","url":"http://dnbstation.com:8005/listen.mp3","lat":53.52999322409392,"lon":-2.0485678547140136,"codec":"MP3","geo_confidence":"low"},{"name":"Soho Radio London","url":"https://sohoradiomusic.doughunt.co.uk:8010/128mp3","lat":51.51331,"lon":-0.13616,"codec":"MP3","geo_confidence":"medium"},{"name":"Past Perfect Radio","url":"http://s2.xrad.io:8046/;","lat":51.941524,"lon":-3.410985,"codec":"AAC+","geo_confidence":"medium"},{"name":"Labyrinth | NTS","url":"https://stream-mixtape-geo.ntslive.net/mixtape31","lat":51.45745648965413,"lon":-0.13650390811066698,"codec":"MP3","geo_confidence":"low"},{"name":"Gaydio","url":"http://stream.gaydio.co.uk/gaydionwhq.mp3","lat":53.4781,"lon":-2.238191,"codec":"MP3","geo_confidence":"high"},{"name":"Gen X Radio","url":"https://s2.radio.co/sf25229e16/listen","lat":52.1888375038616,"lon":1.216452846224758,"codec":"AAC","geo_confidence":"low"},{"name":"Banita Maxx Radio","url":"http://91.232.4.33:9454/stream","lat":53.513188273221765,"lon":-2.0259010746611517,"codec":"MP3","geo_confidence":"low"},{"name":"RadioArt: Just Blues","url":"http://live.radioart.com/fJust_blues.mp3","lat":50.1243692,"lon":-5.6797036,"codec":"MP3","geo_confidence":"medium"},{"name":"World Radio Network Russian (WRN)","url":"http://shoutcast.wrn.org:8025/WRN-R","lat":51.500567,"lon":-0.137329,"codec":"MP3","geo_confidence":"high"},{"name":"The British Home Front Radio Service","url":"https://solid24.streamupsolutions.com/proxy/mmpplqiv?mp=/;type=mp3","lat":52.54454443385581,"lon":-1.5223658289661086,"codec":"MP3","geo_confidence":"low"},{"name":"Heart Musicals","url":"https://media-ice.musicradio.com/HeartMusicalsMP3","lat":51.51014,"lon":-0.12908,"codec":"MP3","geo_confidence":"high"},{"name":"Heart Norfolk 102.4","url":"http://ice-sov.musicradio.com/HeartNorfolkMP3","lat":51.51014,"lon":-0.12908,"codec":"MP3","geo_confidence":"high"},{"name":"Boogaloo Radio","url":"https://streams.radio.co/sb88c742f0/listen","lat":51.576393,"lon":-0.143637,"codec":"MP3","geo_confidence":"high"},{"name":"Mi-Soul","url":"https://listen-misoul.sharp-stream.com/462_mi_soul_128_mp3","lat":51.47191,"lon":-0.02216,"codec":"MP3","geo_confidence":"medium"},{"name":"Diva Radio Disco","url":"https://stream.deevaradio.net:10443/divaradiodisco","lat":51.50223954453651,"lon":-0.11571253203105007,"codec":"MP3","geo_confidence":"low"},{"name":"Pride Radio 90s","url":"http://philae.shoutca.st:8807/stream","lat":54.98497055078502,"lon":-1.6026597079935774,"codec":"MP3","geo_confidence":"low"},{"name":"Easy 50s","url":"https://streaming.exclusive.radio/uber/easy50/icecast.audio","lat":52.108097779411615,"lon":-3.7280539659068577,"codec":"MP3","geo_confidence":"low"},{"name":"Big Beat Radio","url":"http://s4.citrus3.com:8366/stream","lat":53.46850970138761,"lon":-1.9808013204324062,"codec":"AAC","geo_confidence":"none"},{"name":"Nation Radio London","url":"http://tx.sharp-stream.com/http_live.php?i=thamesradio.mp3","lat":51.5074456,"lon":-0.1277653,"codec":"MP3","geo_confidence":"medium"},{"name":"Capital FM South Coast 103.2","url":"http://media-ice.musicradio.com/CapitalSouthCoastMP3","lat":50.85,"lon":-1.18,"codec":"MP3","geo_confidence":"high"},{"name":"Heart Oxfordshire 102.6 & 97.4","url":"http://media-sov.musicradio.com/HeartOxfordshireMP3","lat":51.7377,"lon":-1.1946,"codec":"MP3","geo_confidence":"high"},{"name":"Magic FM London","url":"http://edge-bauermz-01-gos2.sharp-stream.com/magic1054.mp3?aw_0_1st.skey=1657298076","lat":52.55337,"lon":-0.321896,"codec":"MP3","geo_confidence":"high"},{"name":"Dubplate.fm Dub &Bass","url":"https://sc2.dubplate.fm/radio/8000/dubandbass/uhifi","lat":51.5019311,"lon":-2.6588353,"codec":"MP3","geo_confidence":"medium"},{"name":"Soul Central Radio","url":"http://65.21.202.84:8519/stream/","lat":53.46513331288242,"lon":-2.053304734755844,"codec":"MP3","geo_confidence":"low"},{"name":"Heart South Wales","url":"https://media-ssl.musicradio.com/HeartSouthWalesMP3","lat":51.51014,"lon":-0.12908,"codec":"MP3","geo_confidence":"high"},{"name":"Ozzy Osbourne","url":"https://stream.pcradio.ru/ozzy_osbourne-hi","lat":53.44999258135562,"lon":-2.050390765288703,"codec":"AAC","geo_confidence":"low"},{"name":"Nation 90s","url":"http://listen-nation.sharp-stream.com/nationradio90s.aac","lat":53.541219870985074,"lon":-2.0063355379531473,"codec":"AAC+","geo_confidence":"low"},{"name":"Select Radio","url":"https://streaming05.liveboxstream.uk/proxy/selectr1/stream","lat":51.433332,"lon":-0.068804,"codec":"AAC+","geo_confidence":"high"},{"name":"Total Soul (UK) 192kb mp3","url":"https://onair7.xdevel.com/proxy/xautocloud_atvn_1069?mp=/;1/","lat":53.51638492542817,"lon":-2.052332070341178,"codec":"MP3","geo_confidence":"low"},{"name":"Smooth Chill (UK) 48k AAC+","url":"http://icecast.thisisdax.com/SmoothChill","lat":51.51014,"lon":-0.12908,"codec":"AAC","geo_confidence":"high"},{"name":"Hot Radio","url":"https://stream1.hippynet.co.uk/stream/hotradio/dorset","lat":50.7571,"lon":-1.9238,"codec":"MP3","geo_confidence":"high"},{"name":"1Mix Radio - EDM (UK) 320kb mp3","url":"http://fr2.1mix.co.uk:9000/320h","lat":53.525123501124355,"lon":-1.951315316866691,"codec":"MP3","geo_confidence":"low"},{"name":"ROKit Radio : Classic Crime and Suspense","url":"https://streaming04.liveboxstream.uk/proxy/roksta17/stream","lat":51.46758357037501,"lon":-0.17108236438736374,"codec":"MP3","geo_confidence":"low"},{"name":"Netil Radio","url":"https://netilradio.out.airtime.pro/netilradio_a","lat":51.534650075620654,"lon":-0.0918441628610818,"codec":"MP3","geo_confidence":"low"},{"name":"BFBS Beats","url":"https://edge-audio-01-cr.sharp-stream.com/ssvcbfbs20.aac?device=bfbs_beats","lat":51.61371,"lon":-0.57671,"codec":"AAC+","geo_confidence":"medium"},{"name":"Easy Radio","url":"https://listen-nation.sharp-stream.com/breezyradiouk.mp3","lat":51.449568,"lon":-3.416845,"codec":"MP3","geo_confidence":"high"},{"name":"Psychedelic Secret radio","url":"https://solid48.streamupsolutions.com/proxy/bglsokon?mp=/=stream","lat":53.50068079940059,"lon":-2.244018388208705,"codec":"MP3","geo_confidence":"low"},{"name":"Capital FM Edinburgh","url":"http://ice-sov.musicradio.com/CapitalEdinburghMP3","lat":51.51014,"lon":-0.12908,"codec":"MP3","geo_confidence":"high"},{"name":"Classic FM Hall of Fame","url":"https://icecast.thisisdax.com/ClassicFM-M-HOF","lat":51.51014,"lon":-0.12908,"codec":"AAC","geo_confidence":"high"},{"name":"Feelings | NTS","url":"https://stream-mixtape-geo.ntslive.net/mixtape27","lat":51.48748886499262,"lon":-0.08576518623874643,"codec":"MP3","geo_confidence":"low"},{"name":"Smooth scotland","url":"http://media-the.musicradio.com/SmoothScotland","lat":55.8618,"lon":-3.8725,"codec":"AAC","geo_confidence":"high"},{"name":"10 Radio 105.3 - Wiveliscombe","url":"http://live.canstream.co.uk:8000/10radio.mp3","lat":51.042145,"lon":-3.3100475,"codec":"MP3","geo_confidence":"medium"},{"name":"Liquid DnB","url":"https://antares.dribbcast.com/proxy/dave1/stream/","lat":53.45653363978991,"lon":-2.039776704610506,"codec":"MP3","geo_confidence":"low"},{"name":"Energy 1058","url":"http://tachyon.shoutca.st:8590/stream","lat":52.468112944090535,"lon":-1.4640989902962696,"codec":"MP3","geo_confidence":"low"},{"name":"Angel Radio (HQ)","url":"http://s2.xrad.io:8522/stream","lat":50.8468653806197,"lon":-1.0659341240308944,"codec":"MP3","geo_confidence":"low"},{"name":"Big L 1","url":"http://stream4.nsupdate.info:8100/biglh.mp3","lat":51.829313,"lon":1.245232,"codec":"MP3","geo_confidence":"high"},{"name":"Raidi\u00f3 F\u00e1ilte 107.1fm","url":"http://icecast.commedia.org.uk:8000/raidiofailte.mp3?_=1","lat":54.5858047555482,"lon":-6.674815720701548,"codec":"MP3","geo_confidence":"low"},{"name":"Mystery Train Radio","url":"https://streamer.radio.co/sf662f27c0/listen","lat":53.50996038869139,"lon":-2.040393673466843,"codec":"AAC","geo_confidence":"low"},{"name":"WOTR Hymns","url":"http://wotrstream.com:8025/hymns","lat":53.47447103622357,"lon":-2.011602643673914,"codec":"MP3","geo_confidence":"low"},{"name":"Smooth Christmas","url":"https://media-ice.musicradio.com/SmoothXmasMP3","lat":51.51014,"lon":-0.12908,"codec":"MP3","geo_confidence":"high"},{"name":"24-7 Party","url":"http://antares.dribbcast.com:4412/stream","lat":53.469387675594625,"lon":-1.982978841559491,"codec":"MP3","geo_confidence":"low"},{"name":"Sun FM","url":"http://edge-ads-03-gos2.sharp-stream.com/sunfmi.aac","lat":54.9,"lon":-1.380278,"codec":"AAC+","geo_confidence":"high"},{"name":"Malvern Radio International - Pumpkin FM","url":"https://cast2.asurahosting.com/proxy/radiomalvernint/stream","lat":52.107418,"lon":-2.338371,"codec":"MP3","geo_confidence":"high"},{"name":"BedlamDnB","url":"http://c11.radioboss.fm:8318/stream","lat":54.0489933,"lon":-1.5925865,"codec":"MP3","geo_confidence":"medium"},{"name":"TWR UK","url":"https://direct.sharp-stream.com/twruk.mp3","lat":53.53112217722673,"lon":-2.6956750838600976,"codec":"MP3","geo_confidence":"low"},{"name":"Capital Liverpool","url":"http://media-ice.musicradio.com/CapitalLiverpoolMP3","lat":53.4029,"lon":-2.9795,"codec":"MP3","geo_confidence":"high"},{"name":"Radio Bloodstream","url":"https://uk1.internet-radio.com/proxy/bloodstream?mp=/stream","lat":53.53818709234083,"lon":-1.9507687263157611,"codec":"MP3","geo_confidence":"low"},{"name":"24-7 Decades","url":"http://antares.dribbcast.com:4260/stream","lat":52.492869,"lon":-0.683842,"codec":"MP3","geo_confidence":"medium"},{"name":"Radio Caroline [48k aac+]","url":"http://78.129.202.10:8010/;","lat":53.49604380398315,"lon":-2.0121236998162053,"codec":"AAC+","geo_confidence":"low"},{"name":"Shetland Islands Broadcasting Company (SIBC) 96.2 & 102.2","url":"http://tx9.zetcast.net:8100/stream","lat":60.333333,"lon":-1.333333,"codec":"MP3","geo_confidence":"medium"},{"name":"Forest Gold","url":"https://c2.prostream365.com:8000/live","lat":54.6639246,"lon":-2.2066827,"codec":"AAC","geo_confidence":"medium"},{"name":"Boot Boy Radio","url":"https://streaming04.liveboxstream.uk/proxy/dwain?mp=/stream","lat":54.3984112,"lon":-3.2695449,"codec":"AAC+","geo_confidence":"medium"},{"name":"Capital FM Cymru","url":"http://media-ice.musicradio.com/CapitalCymru","lat":53.0766,"lon":-3.02174,"codec":"AAC","geo_confidence":"high"},{"name":"Chocolate Radio","url":"https://stream.radio.co/sa7336b687/listen?ver=712690","lat":52.780787,"lon":-1.607162,"codec":"AAC","geo_confidence":"medium"},{"name":"Drive 105","url":"http://icecast.easystream.co.uk:8000/drive105","lat":54.982878771613905,"lon":-7.32505707527122,"codec":"MP3","geo_confidence":"low"},{"name":"Boom Light","url":"https://listen-boomradio.sharp-stream.com/65_boom_light_128_mp3","lat":52.514463984949856,"lon":-1.4555659981492364,"codec":"MP3","geo_confidence":"low"},{"name":"Monocle Radio","url":"https://playerservices.streamtheworld.com/api/livestream-redirect/MONOCLE_24.mp3","lat":51.5267208561715,"lon":-0.15358728858041285,"codec":"MP3","geo_confidence":"low"},{"name":"Capital XTRA","url":"http://media-the.musicradio.com/CapitalXTRALondonMP3","lat":51.51014,"lon":-0.12908,"codec":"MP3","geo_confidence":"high"},{"name":"Rockin50s Radio","url":"https://eu10.fastcast4u.com/rockin50s","lat":53.48512370696527,"lon":-2.0217623503615063,"codec":"MP3","geo_confidence":"low"},{"name":"Nation Radio Wales","url":"https://edge-ads-05-gos2.sharp-stream.com/tcnationi.aac","lat":51.6585,"lon":-3.8323,"codec":"AAC+","geo_confidence":"high"},{"name":"Bolton FM","url":"https://radio.canstream.co.uk:8083/live.mp3","lat":53.5785,"lon":-2.42991,"codec":"MP3","geo_confidence":"high"},{"name":"Unity FM","url":"http://live.canstream.co.uk:8000/unity.mp3","lat":51.13320476672256,"lon":0.9047895751490804,"codec":"AAC","geo_confidence":"low"},{"name":"Sheet Music | NTS","url":"https://stream-mixtape-geo.ntslive.net/mixtape35","lat":51.0143401,"lon":-0.9189562,"codec":"MP3","geo_confidence":"medium"},{"name":"Trash Can Radio","url":"http://orion.shoutca.st:8031/live","lat":51.48837237771097,"lon":-0.1727698571183183,"codec":"MP3","geo_confidence":"low"},{"name":"BritAsia Radio","url":"https://s4.radio.co/sfefce156f/listen","lat":53.54067515172895,"lon":-1.9851605784776996,"codec":"MP3","geo_confidence":"low"},{"name":"24-7 Just Rock","url":"http://antares.dribbcast.com:4324/stream","lat":50.1243692,"lon":-5.6797036,"codec":"MP3","geo_confidence":"medium"},{"name":"Sweat | NTS","url":"https://stream-mixtape-geo.ntslive.net/mixtape24","lat":51.4725484127208,"lon":-0.08592479545644596,"codec":"MP3","geo_confidence":"low"},{"name":"24/7 Blues Radio","url":"https://ec3.yesstreaming.net:3685/stream","lat":53.45849371582584,"lon":-1.962332393542708,"codec":"MP3","geo_confidence":"low"},{"name":"Heart North West 105.4","url":"http://media-the.musicradio.com/HeartNorthWest","lat":53.4695,"lon":-2.2895,"codec":"AAC","geo_confidence":"high"},{"name":"Real World Sounds","url":"http://uk5.internet-radio.com:8260/;stream","lat":53.45136425830106,"lon":-2.0011280110422818,"codec":"MP3","geo_confidence":"low"},{"name":"KAOS Sound  - Pink Floyd Radio","url":"https://s3.myradiostream.com/:59506/stream/1/","lat":53.0355485,"lon":-2.5661703,"codec":"MP3","geo_confidence":"medium"},{"name":"100 hitz","url":"http://206.217.213.235:8290/","lat":53.540212634446846,"lon":-2.0085864926487176,"codec":"MP3","geo_confidence":"low"},{"name":"Heart Cambridge 103.0","url":"http://ice-sov.musicradio.com/HeartCambridgeMP3","lat":51.51014,"lon":-0.12908,"codec":"MP3","geo_confidence":"high"},{"name":"Heart South Coast 96.7 & 97.5","url":"http://media-sov.musicradio.com/HeartHampshire","lat":51.51014,"lon":-0.12908,"codec":"AAC","geo_confidence":"high"},{"name":"BRMB Radio","url":"https://radio.canstream.co.uk:8147/live.mp3","lat":53.5529335060804,"lon":-2.0043518599889594,"codec":"MP3","geo_confidence":"low"},{"name":"Foundation FM","url":"https://streamer.radio.co/s0628bdd53/listen","lat":51.465677227046264,"lon":-0.1582550717711577,"codec":"MP3","geo_confidence":"low"},{"name":"Bradford Asian Radio","url":"https://cast1.asurahosting.com/proxy/bradford/stream","lat":53.816935,"lon":-1.783525,"codec":"MP3","geo_confidence":"high"},{"name":"HOUSE HEADS UK","url":"http://s36.myradiostream.com:13028/;","lat":52.2716334100007,"lon":-1.5761708087400768,"codec":"MP3","geo_confidence":"low"},{"name":"Solid Soul Grooves Radio - Stourbridge (MP3)","url":"http://stream.zeno.fm/u08ymmrybg8uv","lat":51.510492916066895,"lon":-3.5671914055410174,"codec":"MP3","geo_confidence":"low"},{"name":"SWU FM","url":"https://admin.stream.rinse.fm/proxy/swu/stream","lat":51.440926,"lon":-2.600289,"codec":"MP3","geo_confidence":"high"},{"name":"Rewind Radio","url":"http://s4.radio.co/s2eaa194f6/listen","lat":50.227727,"lon":-5.252039,"codec":"MP3","geo_confidence":"medium"},{"name":"UK Hits - London (MP3)","url":"http://stream.zeno.fm/dpqrqe9nrv8uv","lat":51.5074456,"lon":-0.1277653,"codec":"MP3","geo_confidence":"medium"},{"name":"DanceFMLive Trance","url":"https://broadcast.dancefmlive.com/radio/8010/radio.mp3","lat":53.859513265023,"lon":-2.5639749023212834,"codec":"MP3","geo_confidence":"low"},{"name":"Capital FM Glasgow","url":"http://media-the.musicradio.com/CapitalGlasgow?amsparams=playerid:UKRP;skey:1546958702&aw_0_req.gdpr=true&aw_0_1st.playerid=UKRP&amp;aw_0_1st.ts=1546958679&nmcuid=null&aw_0_1st.nmc=%5B%22%22%5D","lat":51.51014,"lon":-0.12908,"codec":"AAC","geo_confidence":"high"},{"name":"HearMe-Beethoven","url":"https://radio.hearme.fm:9050/stream","lat":53.4627654386423,"lon":-2.023188718596517,"codec":"MP3","geo_confidence":"low"},{"name":"Resonance 104.4FM","url":"https://stream.resonance.fm/resonance?rp_source=1&=&&___cb=309691324386261","lat":51.50343,"lon":-0.10018,"codec":"MP3","geo_confidence":"medium"},{"name":"5 Rivers radio","url":"https://onlineradiobox.com/json/uk/5rivers/play?platform=web","lat":55.87811269257174,"lon":-3.52597249924321,"codec":"MP3","geo_confidence":"low"},{"name":"Bloop London Radio (channel 4) - MUSIC ONLY THEMED STREAM.  NATURAL HIGH. DRENCHED IN GROOVES, AN ORGANIC JOURNEY OF BEATS DEDICATED TO MOVING YOUR ASS.","url":"https://radio.canstream.co.uk:8058/live.mp3","lat":51.520945,"lon":-0.11618,"codec":"MP3","geo_confidence":"medium"},{"name":"Divine Radio London","url":"https://uk2.internet-radio.com/proxy/divinestream?mp=/stream","lat":51.5074456,"lon":-0.1277653,"codec":"AAC+","geo_confidence":"medium"},{"name":"Heart 00s","url":"https://media-ssl.musicradio.com/Heart00sMP3","lat":53.534054702527136,"lon":-1.986307586434136,"codec":"MP3","geo_confidence":"low"},{"name":"ROKit Radio : Saturn-X Radio Shows","url":"https://streaming05.liveboxstream.uk/proxy/jondre03/stream","lat":51.4873145255999,"lon":-0.14173932915943194,"codec":"MP3","geo_confidence":"low"},{"name":"ROKit Radio : American Classic Radio Shows","url":"https://streaming05.liveboxstream.uk/proxy/jondre01/stream","lat":51.507279969879264,"lon":-0.1100209617114209,"codec":"MP3","geo_confidence":"low"},{"name":"Ram FM 80s Hit Radio","url":"https://usa1-vn.mixstream.net/8084/listen.mp3","lat":53.47954851489388,"lon":-2.041968803556396,"codec":"AAC+","geo_confidence":"low"},{"name":"Smooth Soul","url":"https://media-ice.musicradio.com/SmoothSoulMP3","lat":55.862612812035636,"lon":-3.8729828248523366,"codec":"MP3","geo_confidence":"low"},{"name":"Funky SX","url":"http://stream1.funkyessex.co.uk:8000/mp3128","lat":51.75120707725087,"lon":0.551011534679218,"codec":"AAC+","geo_confidence":"low"},{"name":"4TunesFM","url":"https://c30.radioboss.fm:18274/stream","lat":53.484522703904545,"lon":-1.984024067802593,"codec":"MP3","geo_confidence":"low"},{"name":"Hot Hits UK.com","url":"https://443-1.autopo.st/54/stream.mp3","lat":53.48132241193818,"lon":-1.9844221224937173,"codec":"MP3","geo_confidence":"low"},{"name":"TotalRock Radio","url":"https://s3.citrus3.com:8056/stream","lat":51.58593,"lon":-0.19099,"codec":"MP3","geo_confidence":"medium"},{"name":"Heart Yorkshire","url":"http://media-sov.musicradio.com/HeartYorkshire","lat":53.77855055793621,"lon":-1.5705437677611,"codec":"AAC","geo_confidence":"low"},{"name":"Rafa Bible Radio English","url":"https://gains.reviveradio.net/proxy/rafabibleradioeng?mp=/stream","lat":51.47926945872588,"lon":-0.14184159336538094,"codec":"MP3","geo_confidence":"low"},{"name":"Rockabilly-Radio.net","url":"http://lin3.ash.fast-serv.com:6026/stream_96","lat":53.34462,"lon":-1.38872,"codec":"MP3","geo_confidence":"medium"},{"name":"Radio Faza","url":"https://radiocast.cr8tive-digital.com/radiofaza","lat":52.980442778528094,"lon":-1.1417513837331899,"codec":"MP3","geo_confidence":"low"},{"name":"Drum & Bass Radio","url":"http://eilo.org:8000/drum","lat":53.492300813113644,"lon":-2.042138106549889,"codec":"MP3","geo_confidence":"low"},{"name":"Asian Star Radio","url":"https://radio.canstream.co.uk:9067/live.mp3","lat":56.2175122,"lon":-3.1048822,"codec":"MP3","geo_confidence":"medium"},{"name":"Nation 80s","url":"http://listen-nation.sharp-stream.com/nationradio80s.aac","lat":51.449568,"lon":-3.416845,"codec":"AAC+","geo_confidence":"high"},{"name":"The Sounds of GTA | NTS","url":"https://stream-mixtape-geo.ntslive.net/mixtape33","lat":51.51545241836353,"lon":-0.06887043357684053,"codec":"MP3","geo_confidence":"low"},{"name":"Smooth 80s","url":"https://media-ice.musicradio.com/Smooth80sMP3","lat":51.51014,"lon":-0.12908,"codec":"MP3","geo_confidence":"high"},{"name":"Lyca Dil se radio","url":"https://edge-ads-03-gos2.sharp-stream.com/1035.mp3","lat":53.53726778250706,"lon":-1.9565836357724815,"codec":"MP3","geo_confidence":"low"},{"name":"80s Rhythm","url":"https://stream.mybroadbandradio.com/80srhythmhq/","lat":51.47262914132388,"lon":-0.1717416195633685,"codec":"MP3","geo_confidence":"low"},{"name":"Bristol Sound Webradio","url":"https://thebristolsoundwebradio.stream.laut.fm/thebristolsoundwebradio","lat":51.4538022,"lon":-2.5972985,"codec":"MP3","geo_confidence":"medium"},{"name":"Phoenix Radio 1208","url":"http://listen.phoenixradio1208.com:8027/live","lat":51.63896238222671,"lon":0.30208980365827326,"codec":"MP3","geo_confidence":"low"},{"name":"Radio Caroline North (Ross Revenge live broadcasts)","url":"http://sc2.radiocaroline.net:8100/;","lat":53.8660433,"lon":-0.8985809,"codec":"MP3","geo_confidence":"medium"},{"name":"Hot Gold","url":"https://stream1.hippynet.co.uk/stream/hotgold/dorset","lat":50.73735,"lon":-1.95102,"codec":"MP3","geo_confidence":"medium"},{"name":"1Mix Radio - Trance (UK) 192kb mp3","url":"http://fr2.1mix.co.uk:9000/192b","lat":53.55231644358889,"lon":-1.9601428292517415,"codec":"MP3","geo_confidence":"low"},{"name":"The Beatles","url":"https://stream.pcradio.ru/The_Beatles-hi","lat":53.51563218844138,"lon":-1.9796074780320299,"codec":"AAC","geo_confidence":"low"},{"name":"Panjab Radio London","url":"http://s1.voscast.com:7918/stream","lat":51.51361,"lon":-0.39787,"codec":"MP3","geo_confidence":"medium"},{"name":"Nice Cream Blue","url":"https://play.nicecream.fm/radio/8020/blue.mp3","lat":51.47773109493724,"lon":-0.09170882215879596,"codec":"MP3","geo_confidence":"low"},{"name":"Heart Bristol 96.3","url":"http://ice-sov.musicradio.com/HeartBristolMP3","lat":51.51014,"lon":-0.12908,"codec":"MP3","geo_confidence":"high"},{"name":"Frome FM 96.6","url":"http://icecast.bargus.co.uk:8001/fromefm.mp3","lat":51.22357222293786,"lon":-2.3190161523414687,"codec":"MP3","geo_confidence":"low"},{"name":"Sunrise Radio","url":"https://direct.sharp-stream.com/sunriseradio.mp3","lat":51.47133,"lon":-0.35265,"codec":"MP3","geo_confidence":"high"},{"name":"The Global Voice","url":"http://theglobalvoice.info:8000/broadband","lat":51.084839006490036,"lon":-4.057983912138964,"codec":"MP3","geo_confidence":"low"},{"name":"Radio Skye","url":"http://comet.shoutca.st:8338/live","lat":57.4167,"lon":-6.19421,"codec":"MP3","geo_confidence":"medium"},{"name":"Revolution Radio One","url":"https://visual.shoutca.st/stream/revolutionone/stream","lat":53.459186089552055,"lon":-1.9912256111172553,"codec":"AAC","geo_confidence":"low"},{"name":"Radio Six International","url":"http://www.radiosix.com/radiosix.mp3","lat":56.5523,"lon":-5.44821,"codec":"MP3","geo_confidence":"medium"},{"name":"Deep Purple","url":"https://stream.pcradio.ru/Deep_purple-hi","lat":53.47503059058451,"lon":-1.9982150939463674,"codec":"AAC","geo_confidence":"low"},{"name":"XL:UK Radio","url":"https://s3.radio.co/s113a5dc46/listen","lat":52.12567756952501,"lon":-3.7402638905647354,"codec":"MP3","geo_confidence":"low"},{"name":"Heartlands | NTS","url":"https://stream-mixtape-geo.ntslive.net/mixtape32","lat":51.55363779147706,"lon":-0.10745112764938994,"codec":"MP3","geo_confidence":"low"},{"name":"Heart Bath 103.0","url":"http://media-sov.musicradio.com/HeartBathMP3","lat":51.3782,"lon":-2.3576,"codec":"MP3","geo_confidence":"high"},{"name":"Heart Kent 103.1 & 102.8","url":"http://media-sov.musicradio.com/HeartKent","lat":51.3581,"lon":1.05556,"codec":"AAC","geo_confidence":"high"},{"name":"Classic FM Music For Pets","url":"https://media-ssl.musicradio.com/ClassicFM-M-Pets","lat":51.51014,"lon":-0.12908,"codec":"AAC","geo_confidence":"high"},{"name":"Soho Radio","url":"http://sohoradiomusic.doughunt.co.uk:8000/320mp3","lat":51.513332,"lon":-0.138346,"codec":"MP3","geo_confidence":"high"},{"name":"ABC Oldies Radio","url":"https://carina.streamerr.co/stream/abcoldiesradio","lat":53.46554236775975,"lon":-1.9671545537379929,"codec":"MP3","geo_confidence":"low"},{"name":"The Prodigy","url":"https://stream.pcradio.ru/The_Prodigy-hi","lat":53.50769476495513,"lon":-2.0140598454836427,"codec":"AAC","geo_confidence":"low"},{"name":"Love Soul Radio London","url":"https://s1.citrus3.com:8018/stream","lat":51.5074456,"lon":-0.1277653,"codec":"AAC","geo_confidence":"medium"},{"name":"Box UK (danceradiouk.com) 128k MP3","url":"http://boxstream.danceradiouk.com/stream/","lat":51.4211867,"lon":-2.2502457,"codec":"MP3","geo_confidence":"medium"},{"name":"HearMe - 60s Rock","url":"https://radio.hearme.fm:8230/stream","lat":53.54869425200245,"lon":-2.0481016344886975,"codec":"MP3","geo_confidence":"low"},{"name":"Ambient & Chill Radio","url":"http://eilo.org:8000/ambient","lat":53.46382189529222,"lon":-1.9666620552217733,"codec":"MP3","geo_confidence":"low"},{"name":"Otaku | NTS","url":"https://stream-mixtape-geo.ntslive.net/mixtape36","lat":51.54681485864958,"lon":-0.07150091882247964,"codec":"MP3","geo_confidence":"low"},{"name":"The Pit | NTS","url":"https://stream-mixtape-geo.ntslive.net/mixtape34","lat":51.487099856647454,"lon":-0.07228494680889065,"codec":"MP3","geo_confidence":"low"},{"name":"Cross Rhythms City Radio","url":"http://stream.crossrhythms.co.uk/city/hq.mp3","lat":58.4746724,"lon":-6.2810431,"codec":"MP3","geo_confidence":"medium"},{"name":"1Mix Radio - EDM (UK) 128kb mp3","url":"http://fr2.1mix.co.uk:9000/128h","lat":53.462930825221804,"lon":-2.0133391186125436,"codec":"MP3","geo_confidence":"low"},{"name":"Smooth Chill Focus","url":"https://media-ssl.musicradio.com/SmoothChill-M-Concentration?","lat":53.49643068392096,"lon":-2.052671756487729,"codec":"AAC","geo_confidence":"low"},{"name":"Malvern Radio JRS - Pumpkin FM","url":"https://cast2.asurahosting.com/proxy/malvernradiojrs/stream","lat":52.11571,"lon":-2.328415,"codec":"MP3","geo_confidence":"high"},{"name":"BFBS 2","url":"http://icy-e-05-gos.sharp-stream.com/ssvcbfbs2.mp3","lat":36.122059379721954,"lon":-5.333750615169814,"codec":"MP3","geo_confidence":"low"},{"name":"Radio Rock UK","url":"http://n11.radiojar.com/5exb2mtkunhvv","lat":53.8,"lon":-2.6,"codec":"MP3","geo_confidence":"high"},{"name":"Itch.FM","url":"https://streaming.radio.co/s264858a04/listen","lat":52.5157628613668,"lon":-1.7863992461012559,"codec":"MP3","geo_confidence":"low"},{"name":"Heart Plymouth 97.0 & 96.6","url":"http://media-sov.musicradio.com/HeartPlymouth","lat":51.51014,"lon":-0.12908,"codec":"AAC","geo_confidence":"high"},{"name":"Dragon Radio","url":"https://listen-nation.sharp-stream.com/tcnationdigital.mp3","lat":51.4572,"lon":-3.40294,"codec":"MP3","geo_confidence":"high"},{"name":"Playback UK","url":"https://chilledstreaming.com:8650/mobile.mp3","lat":53.463958981281365,"lon":-1.9758275848908413,"codec":"MP3","geo_confidence":"low"},{"name":"1Mix Radio - Trance #1 (UK) 192kb mp3","url":"http://fr2.1mix.co.uk:9000/192","lat":53.45451961160859,"lon":-2.0541433461311143,"codec":"MP3","geo_confidence":"low"},{"name":"Rainbow","url":"https://stream.pcradio.ru/Rainbow-hi","lat":51.419941527889435,"lon":-0.06939579842050463,"codec":"AAC","geo_confidence":"low"},{"name":"Fantasy Radio 97.0 - Devizes","url":"http://server.fantasyradio.co.uk:8300/;stream/1","lat":51.352182,"lon":-1.996254,"codec":"MP3","geo_confidence":"medium"},{"name":"Dance Classics UK","url":"https://stream4.themediasite.co.uk/stream/danceclassics","lat":53.55466061383943,"lon":-2.0273022584669067,"codec":"AAC","geo_confidence":"low"},{"name":"RustRadio","url":"https://listen.rustradio.co.uk:8443/stream","lat":51.685,"lon":-4.182,"codec":"MP3","geo_confidence":"high"},{"name":"Sheffield Live!","url":"http://live.sheffieldlive.org:8000/shefflive.mp3","lat":53.388174028330425,"lon":-1.5089468159080268,"codec":"MP3","geo_confidence":"low"},{"name":"Go Radio Glasgow","url":"https://streaming.broadcastradio.com:8252/goradio","lat":55.845126,"lon":-4.25829,"codec":"MP3","geo_confidence":"medium"},{"name":"Dubstep Radio","url":"http://eilo.org:8000/dubstep","lat":53.52586550710045,"lon":-1.951755145778124,"codec":"MP3","geo_confidence":"low"},{"name":"Heart Berkshire 102.9 & 97.0","url":"http://media-ice.musicradio.com/HeartBerkshireMP3?.mp3","lat":51.4422,"lon":-1.0372,"codec":"MP3","geo_confidence":"high"},{"name":"radioalfa2 latin hits","url":"http://stream.zeno.fm/1q3kddbxgnruv","lat":53.54189755172397,"lon":-1.9799242317059367,"codec":"MP3","geo_confidence":"low"},{"name":"Heart Cornwall 105.1 &107.0","url":"http://media-ice.musicradio.com/HeartCornwallMP3","lat":51.51014,"lon":-0.12908,"codec":"MP3","geo_confidence":"high"},{"name":"Energy FM - Old School Classics","url":"http://162.244.80.106:8024/stream","lat":52.3563851,"lon":-0.8394718,"codec":"MP3","geo_confidence":"medium"},{"name":".. Al quran radio","url":"https://n0a.radiojar.com/0tpy1h0kxtzuv?rj-ttl=5&rj-tok=AAABhdgGORQA-2acfyF3_4WY2g","lat":53.44981205318002,"lon":-2.022687695053799,"codec":"MP3","geo_confidence":"low"},{"name":"Salaam Radio","url":"https://radio.canstream.co.uk:8005/live.mp3","lat":52.574336,"lon":-0.237171,"codec":"MP3","geo_confidence":"high"},{"name":"Premier Christian Radio","url":"https://pcr.streamguys1.com/pcrnational-96k.aac","lat":51.203847,"lon":-0.592895,"codec":"AAC","geo_confidence":"high"},{"name":"Centre Force Radio","url":"http://centreforce.streamgb.com:8830/320","lat":52.422973,"lon":0.75185,"codec":"MP3","geo_confidence":"medium"},{"name":"Big L 2","url":"http://eastlondonradio.com:8100/bigl2h.mp3","lat":51.5074456,"lon":-0.1277653,"codec":"MP3","geo_confidence":"medium"},{"name":"EasyListening.com","url":"https://easylistening.out.airtime.pro/easylistening_a","lat":53.456956257014994,"lon":-1.9500655080436415,"codec":"MP3","geo_confidence":"low"},{"name":"105.9 Academy FM (Folkestone)","url":"http://s2.xrad.io:8080/stream","lat":51.3505,"lon":1.3924,"codec":"AAC+","geo_confidence":"high"},{"name":"Capital Anthems","url":"https://media-ice.musicradio.com/CapitalAnthemsMP3","lat":53.47051142413437,"lon":-2.2898499609333114,"codec":"MP3","geo_confidence":"low"},{"name":"Eirewave UK","url":"http://eirewave.ice.infomaniak.ch/eirewave-128.mp3","lat":53.52277543996875,"lon":-1.9823769638192321,"codec":"MP3","geo_confidence":"low"},{"name":"1Mix Radio - Trance (UK) 128kb mp3","url":"http://fr2.1mix.co.uk:9000/128b","lat":53.54715291867781,"lon":-1.9993613292077466,"codec":"MP3","geo_confidence":"low"},{"name":"Totally Wired Radio","url":"https://totallywired.out.airtime.pro/totallywired_a","lat":53.45178745769821,"lon":-2.0017320416743707,"codec":"MP3","geo_confidence":"low"},{"name":"Heart Wiltshire","url":"https://media-ssl.musicradio.com/HeartWiltshireMP3","lat":51.558333,"lon":-1.781111,"codec":"MP3","geo_confidence":"high"},{"name":"House FM","url":"https://uksoutha.streaming.broadcast.radio:19920/housefm","lat":51.491645,"lon":-0.134583,"codec":"MP3","geo_confidence":"high"},{"name":"Cuillin FM (Isle of Skye)","url":"http://comet.shoutca.st:8338/stream","lat":57.4171,"lon":-6.1938,"codec":"MP3","geo_confidence":"high"},{"name":"kmfm (Canterbury)","url":"http://listen-kmfm.sharp-stream.com/kmfmcanterbury.mp3?ref=RB","lat":51.27501922456991,"lon":1.0798894269856831,"codec":"MP3","geo_confidence":"low"},{"name":"LCRFM 103.6 Lincoln","url":"https://streaming.broadcast.radio/lincoln","lat":52.62012294692005,"lon":-1.1212105002770318,"codec":"MP3","geo_confidence":"low"},{"name":"24/7 Bossa Nova Radio","url":"https://ec6.yesstreaming.net:1605/stream","lat":51.3391830268803,"lon":-2.9850394630560277,"codec":"MP3","geo_confidence":"low"},{"name":"107.8 Black Diamond FM","url":"https://icecast-s.bdfm.radio/blackdiamondfm?icecast","lat":55.8086711997496,"lon":-3.042685042335534,"codec":"MP3","geo_confidence":"low"},{"name":"UK Health Radio","url":"https://streaming.radio.co/s8e535ff20/listen","lat":55.64297043230298,"lon":-4.783502077201444,"codec":"MP3","geo_confidence":"low"},{"name":"Sub.fm","url":"http://subfm.radioca.st/Sub.FM","lat":52.0682353,"lon":-1.8180725,"codec":"MP3","geo_confidence":"medium"},{"name":"Greatest Hits Radio (Devon)","url":"http://edge-bauermz-03-gos2.sharp-stream.com/net2devon.mp3?aw_0_1st.skey=1602676850","lat":56.48314693210772,"lon":-2.9780013643984535,"codec":"MP3","geo_confidence":"low"},{"name":"Rap House - Infinite Mixtapes | NTS","url":"https://stream-mixtape-geo.ntslive.net/mixtape22","lat":53.52620584836025,"lon":-1.9914003295070493,"codec":"MP3","geo_confidence":"low"},{"name":"The Mix Radio 80s","url":"https://tmr80s.radioca.st/stream","lat":53.49135622877542,"lon":-2.012183889713414,"codec":"MP3","geo_confidence":"low"},{"name":"Hereme 2000s pop","url":"https://radio.hearme.fm:8040/stream","lat":53.474616095903244,"lon":-2.0042423376998033,"codec":"MP3","geo_confidence":"low"},{"name":"Riverside Radio","url":"https://streaming04.liveboxstream.uk/proxy/mtunstil?mp=/stream","lat":51.474,"lon":-0.152,"codec":"AAC+","geo_confidence":"high"},{"name":"Dance UK","url":"https://dancestream.danceradiouk.com/stream/1/stream.mp3","lat":53.46874812849652,"lon":-2.019559220085982,"codec":"MP3","geo_confidence":"low"},{"name":"qUAntUm RaDio","url":"https://radio.erb.pw/listen/subspace/radio.mp3","lat":53.518002574952085,"lon":-2.0346089621725514,"codec":"MP3","geo_confidence":"low"},{"name":"1Mix Radio - House (UK) 32kb aac+","url":"http://fr2.1mix.co.uk:9000/aachb","lat":53.493889146863694,"lon":-2.0288710869042834,"codec":"AAC+","geo_confidence":"low"},{"name":"Passion Radio","url":"http://stream.mybroadbandradio.com/passionradio","lat":50.736544431654856,"lon":-3.5445795862754297,"codec":"AAC","geo_confidence":"low"},{"name":"Intamixx Desi Radio UK","url":"https://radio.intamixx.uk:8443/radio1","lat":53.51480834983285,"lon":-1.982814671417655,"codec":"MP3","geo_confidence":"low"},{"name":"Radio X 00s","url":"http://media-ice.musicradio.com/RadioX00sMP3","lat":51.51014,"lon":-0.12908,"codec":"MP3","geo_confidence":"high"},{"name":"East Devon Radio","url":"http://streaming.broadcastradio.com:10320/exmouthmp3","lat":50.756877,"lon":-3.221564,"codec":"MP3","geo_confidence":"medium"},{"name":"Crackers Radio","url":"https://crackersfresh.radioca.st/;","lat":51.423821,"lon":0.059057,"codec":"MP3","geo_confidence":"high"},{"name":"97 Country FM","url":"https://vistaradio.streamb.live/SB00040?=&&___cb=491767877535127","lat":53.45976577219664,"lon":-2.016833943801893,"codec":"AAC+","geo_confidence":"low"},{"name":"Amber Sound FM","url":"http://92.27.32.159:8400/live","lat":53.050393,"lon":-1.405538,"codec":"AAC+","geo_confidence":"medium"},{"name":"PARTY VIBE RADIO : REGGAE","url":"https://www.partyvibe.com:8060/;listen.pls?sid=1","lat":53.50845018386223,"lon":-2.054222450409835,"codec":"MP3","geo_confidence":"low"},{"name":"Spectrum Radio International 558 AM","url":"http://direct.sharp-stream.com/spectrum5.mp3","lat":51.466407686110216,"lon":-0.11610230269867514,"codec":"MP3","geo_confidence":"low"},{"name":"Heart North Wales","url":"http://media-ice.musicradio.com/HeartNorthWalesMP3","lat":53.463249962314904,"lon":-2.2844614781804755,"codec":"MP3","geo_confidence":"low"},{"name":"Nations Easy Radio South UK","url":"http://listen-nation.sharp-stream.com/breeze_soton.mp3?direct=false&aw_0_1st.playerid=BMUK_Airable&aw_0_1st.skey=6778249992","lat":51.449568,"lon":-3.416845,"codec":"MP3","geo_confidence":"high"},{"name":"London Christmas Radio - London (MP3)","url":"http://stream.zeno.fm/xkyvftapsqruv","lat":51.5074456,"lon":-0.1277653,"codec":"MP3","geo_confidence":"medium"},{"name":"SOULPOWER-RADIO.COM","url":"https://s2.radio.co/sb0964023c/listen","lat":52.533304,"lon":-1.62109,"codec":"MP3","geo_confidence":"high"},{"name":"Awaz FM","url":"https://uksoutha.streaming.broadcast.radio/awazfm?1709527674574=","lat":55.869363,"lon":-4.259544,"codec":"MP3","geo_confidence":"high"},{"name":"100.8 Home Radio","url":"https://uksoutha.streaming.broadcast.radio/home?1721747577077=","lat":51.51212448808554,"lon":-0.14682133305784228,"codec":"MP3","geo_confidence":"low"},{"name":"Taiyabah Masjid","url":"https://taiyabahmbolton.radioca.st/stream","lat":53.59202,"lon":-2.43141,"codec":"MP3","geo_confidence":"medium"},{"name":"Amazing Radio","url":"http://amazingradio.stream.laut.fm/amazingradio?t302=2023-11-01_18-04-38&uuid=9dc21e5d-5102-400a-b0a3-acf860947777","lat":54.966038,"lon":-1.603667,"codec":"MP3","geo_confidence":"high"},{"name":"Heart Dorset 102.3","url":"http://ice-sov.musicradio.com/HeartDorsetMP3","lat":51.51014,"lon":-0.12908,"codec":"MP3","geo_confidence":"high"},{"name":"HearMe - 70s Rock","url":"https://radio.hearme.fm:8240/stream","lat":53.463468858860075,"lon":-1.9646529927523,"codec":"MP3","geo_confidence":"low"},{"name":"Do You Radio","url":"https://doyouworld.out.airtime.pro/doyouworld_a","lat":51.54860327270548,"lon":-0.15807872800693817,"codec":"MP3","geo_confidence":"low"},{"name":"RSTV - RnB (MP3)","url":"http://stream.zeno.fm/qm22c59vqnhvv","lat":53.500023752945715,"lon":-2.0543511779488415,"codec":"MP3","geo_confidence":"low"},{"name":"University Radio York","url":"https://audio.ury.org.uk/live-high","lat":53.9481,"lon":-1.05413,"codec":"MP3","geo_confidence":"high"},{"name":"Heart Peterborough","url":"http://media-ice.musicradio.com/HeartPeterboroughMP3","lat":51.51014,"lon":-0.12908,"codec":"MP3","geo_confidence":"high"},{"name":"Radio Wey","url":"http://stream.radiowey.org:8000/radiowey128","lat":51.3765,"lon":-0.5288,"codec":"MP3","geo_confidence":"high"},{"name":"Nation Radio","url":"http://listen-nation.sharp-stream.com/nationhulldab.mp3?ref=RF","lat":51.2735162468782,"lon":-0.7629416594132098,"codec":"MP3","geo_confidence":"low"},{"name":"Hospital Radio Norwich","url":"https://hospita1.radioca.st/;","lat":52.617267,"lon":1.220772,"codec":"MP3","geo_confidence":"medium"},{"name":"Golden Decades Radio","url":"https://streaming.live365.com/a99471","lat":54.894476,"lon":-2.935741,"codec":"MP3","geo_confidence":"high"},{"name":"Big L","url":"https://s2.streamer1.com/listen/bigl/biglTEST.mp3","lat":51.5074456,"lon":-0.1277653,"codec":"MP3","geo_confidence":"medium"},{"name":"WBLS Radio","url":"http://s2.myradiostream.com:3604/;","lat":53.52943403725616,"lon":-1.981934461234355,"codec":"MP3","geo_confidence":"low"},{"name":"This is the Coast","url":"https://streaming.broadcastradio.com:10765/thisisthecoast","lat":54.27969,"lon":-0.39357,"codec":"MP3","geo_confidence":"high"},{"name":"The Ambientscape Project","url":"https://listen.radioking.com/radio/504205/stream/561655","lat":53.461445850871144,"lon":-2.0334082231224535,"codec":"MP3","geo_confidence":"low"},{"name":"The Buzz","url":"https://streaming05.liveboxstream.uk/proxy/kookyinc/stream","lat":53.51468389458132,"lon":-2.2134313031561748,"codec":"MP3","geo_confidence":"low"},{"name":"Mix Radio","url":"http://45.67.156.157:18006/live","lat":51.81759143127329,"lon":-0.8056629904933886,"codec":"MP3","geo_confidence":"low"},{"name":"Fresh Christmas - London (MP3)","url":"http://stream.zeno.fm/wahc3kxfcd0uv","lat":51.5074456,"lon":-0.1277653,"codec":"MP3","geo_confidence":"medium"},{"name":"Isle of Wight Radio","url":"https://s2.xrad.io:9598/listen.mp3?=&&___cb=275280937051671","lat":50.6491,"lon":-1.329,"codec":"MP3","geo_confidence":"high"},{"name":"Heart South West","url":"http://media-the.musicradio.com/HeartCornwall","lat":51.51014,"lon":-0.12908,"codec":"AAC","geo_confidence":"high"},{"name":"Play Radio","url":"https://stream.radiojar.com/0zs50dbr274tv","lat":51.4792679,"lon":-0.9348588,"codec":"MP3","geo_confidence":"medium"},{"name":"radioalfa11 latin hits","url":"http://stream.zeno.fm/5y3qdawpgzzuv","lat":53.48839041380057,"lon":-2.0046692544081406,"codec":"MP3","geo_confidence":"low"},{"name":"Sunshine Radio Online UK","url":"https://stream1.themediasite.co.uk/8036/stream","lat":52.05511954340831,"lon":-2.716032574781457,"codec":"MP3","geo_confidence":"low"},{"name":"Fallout 4 - Classical Radio","url":"http://fallout.fm:8000/falloutfm7.ogg","lat":53.55320964834145,"lon":-1.9535734467158499,"codec":"OGG","geo_confidence":"low"},{"name":"Original 106","url":"https://listen-original.sharp-stream.com/original106.mp3","lat":57.1264,"lon":-2.09333,"codec":"MP3","geo_confidence":"high"},{"name":"radioalfa10 latin hits","url":"http://stream.zeno.fm/1vdk4k7ksqzuv","lat":53.52342420990077,"lon":-2.036248873125587,"codec":"MP3","geo_confidence":"low"},{"name":"Lam Rim Radio","url":"http://199.180.72.2:9097/lamrim","lat":51.440868,"lon":-2.601659,"codec":"MP3","geo_confidence":"medium"},{"name":"LASER558","url":"http://s6.autopo.st:8622/stream","lat":53.472392962993446,"lon":-2.029116002168533,"codec":"MP3","geo_confidence":"low"},{"name":"90s 2000s & More","url":"https://lunar.citrus3.com:8162/stream","lat":50.981859273180596,"lon":-0.09686869249736743,"codec":"AAC","geo_confidence":"low"},{"name":"Radio Reverb","url":"http://edge-audio-03-gos2.sharp-stream.com/radioreverb.mp3","lat":50.8292,"lon":-0.1128,"codec":"MP3","geo_confidence":"high"},{"name":"1Mix Radio - House (UK) 192kb mp3","url":"http://fr2.1mix.co.uk:9000/192hb","lat":53.446188201976746,"lon":-1.953132309037757,"codec":"MP3","geo_confidence":"low"},{"name":"maritime radio","url":"https://mediacp.nkpa.co.uk/stream/maritime%E2%80%8B/MRMP3","lat":51.473449,"lon":0.072982,"codec":"MP3","geo_confidence":"medium"},{"name":"Aaja Radio | Channel 2","url":"https://aaja-2.radiocult.fm/stream","lat":51.47607,"lon":-0.022584,"codec":"MP3","geo_confidence":"high"},{"name":"Dirty Radio for Underworld Fans","url":"https://live.dirty.radio/stream","lat":55.6568748,"lon":-2.6081929,"codec":"AAC","geo_confidence":"medium"},{"name":"Masjid E Salaam Bolton","url":"https://msalaambolton.radioca.st/Stream","lat":53.58121632821129,"lon":-2.434241314189902,"codec":"MP3","geo_confidence":"low"},{"name":"1Mix Radio - Trance #1 (UK) 128kb mp3","url":"http://fr2.1mix.co.uk:9000/128","lat":53.47278215591977,"lon":-1.9736233087113648,"codec":"MP3","geo_confidence":"low"},{"name":"Hardrock Hell","url":"https://s3.radio.co/s1f74e2763/listen","lat":50.7981803,"lon":-1.4213001,"codec":"MP3","geo_confidence":"medium"},{"name":"Clyde Built Radio","url":"https://clydebuiltradio.out.airtime.pro/clydebuiltradio_a","lat":55.859082636487216,"lon":-4.279654865473196,"codec":"MP3","geo_confidence":"low"},{"name":"RSTV Dance","url":"https://radiozender.mpbnetwerken.nl/rstvdance.mp3","lat":53.548672339784375,"lon":-2.04945306992262,"codec":"AAC+","geo_confidence":"low"},{"name":"Belters Radio","url":"https://uk2.internet-radio.com/proxy/belters?mp=/live","lat":53.45573625065869,"lon":-2.0167009533526614,"codec":"MP3","geo_confidence":"low"},{"name":"RSTV - DnB (MP3)","url":"http://stream.zeno.fm/hl9sghvkxdvuv","lat":53.50278171668941,"lon":-2.0468182504903103,"codec":"MP3","geo_confidence":"low"},{"name":"Smooth Bristol and Bath","url":"https://media-the.musicradio.com/SmoothBristolMP3","lat":51.39141136295021,"lon":-2.381144461869063,"codec":"MP3","geo_confidence":"low"},{"name":"90.1 Hope FM","url":"http://stream-hfm.tune-in.co.uk:19020/;","lat":50.74103122633697,"lon":-1.8902004783388995,"codec":"MP3","geo_confidence":"low"},{"name":"radioalfa17 latin hits","url":"http://stream.zeno.fm/9cw9n1nm0d0uv","lat":53.467417090931534,"lon":-2.0065061642605593,"codec":"MP3","geo_confidence":"low"},{"name":"Rokit Drama","url":"http://streaming06.liveboxstream.uk:8174/stream","lat":53.46837620915924,"lon":-2.011464259418767,"codec":"MP3","geo_confidence":"low"},{"name":"LV18 Radio Mi Amigo","url":"https://n0c.radiojar.com/0e16w6ha74uvv?rj-ttl=5&rj-tok=AAABkUcb0WkA7LgvZIzrVWH30g","lat":51.944817838851975,"lon":1.277750386075404,"codec":"MP3","geo_confidence":"low"},{"name":"Primordial Radio","url":"https://fr1-play.adtonos.com/8108/thisisprimordial","lat":53.476243,"lon":-2.219546,"codec":"MP3","geo_confidence":"medium"},{"name":"HearMe - Love songs","url":"https://radio.hearme.fm:8140/stream","lat":53.540659682025584,"lon":-2.0473138940828655,"codec":"MP3","geo_confidence":"low"},{"name":"radioalfa5 latin hits","url":"http://stream.zeno.fm/x9y4ytkavqzuv","lat":53.52405829427276,"lon":-2.0004705449741964,"codec":"MP3","geo_confidence":"low"},{"name":"Capital FM Nottinghamshire","url":"http://icecast.thisisdax.com/CapitalNottinghamshire","lat":51.51014,"lon":-0.12908,"codec":"AAC","geo_confidence":"high"},{"name":"Xtra Hot","url":"https://stream1.hippynet.co.uk/stream/xtrahot/live","lat":53.45795186258455,"lon":-1.9872412238321828,"codec":"MP3","geo_confidence":"low"},{"name":"radioalfa15 latin hits","url":"http://stream.zeno.fm/034v7pbzxwzuv","lat":53.50014151571904,"lon":-2.00672701566986,"codec":"MP3","geo_confidence":"low"},{"name":"RadioBG-London","url":"http://live.radiobg.co.uk:8000/live","lat":51.5074456,"lon":-0.1277653,"codec":"MP3","geo_confidence":"medium"},{"name":"Jambo! Radio","url":"https://stream3.themediasite.co.uk:8130/stream","lat":55.860594,"lon":-4.255875,"codec":"MP3","geo_confidence":"medium"},{"name":"HearMe - Classic Rock","url":"https://radio.hearme.fm:8270/stream","lat":53.518690412443526,"lon":-1.9603205313406236,"codec":"MP3","geo_confidence":"low"},{"name":"Heart West Wales","url":"http://ice-sov.musicradio.com/HeartWestWalesMP3","lat":51.51014,"lon":-0.12908,"codec":"MP3","geo_confidence":"high"},{"name":"Bikers Hangout Radio","url":"https://stream.radio.co/s803057ca0/listen","lat":53.50701512748189,"lon":-2.02492905321995,"codec":"MP3","geo_confidence":"low"},{"name":"NonStopPlay.com Dance Radio","url":"http://stream.nonstopplay.co.uk/nsp-128k-mp3","lat":53.527967006590444,"lon":-1.9724430832423836,"codec":"MP3","geo_confidence":"low"},{"name":"Nation 00s","url":"http://listen-nation.sharp-stream.com/nationradio00s.aac?ref=RF","lat":51.449568,"lon":-3.416845,"codec":"AAC+","geo_confidence":"high"},{"name":"Aaja Radio | Channel 1","url":"https://aaja.radiocult.fm/stream","lat":51.47607,"lon":-0.022584,"codec":"MP3","geo_confidence":"high"},{"name":"radioalfa20 latin hits","url":"http://stream.zeno.fm/nh4m3mpm0d0uv","lat":53.54953221812484,"lon":-2.043021986151119,"codec":"MP3","geo_confidence":"low"},{"name":"Great Yorkshire Radio","url":"https://stream1.superstreaming.co.uk/proxy/greatyorkshire/stream","lat":53.77133940299772,"lon":-1.57167012911096,"codec":"MP3","geo_confidence":"low"},{"name":"Big Beat Brighton","url":"https://s4.citrus3.com:8366/stream","lat":50.95941822799723,"lon":-0.12561854672777434,"codec":"AAC","geo_confidence":"low"},{"name":"Nostalgia Central","url":"https://s5.radio.co/s6211fbeed/listen","lat":53.48204382212065,"lon":-2.0338612325160907,"codec":"MP3","geo_confidence":"low"},{"name":"JAM Radio","url":"http://stream.zeno.fm/n958khk73hhvv","lat":53.77088466642068,"lon":-0.37063029768627725,"codec":"MP3","geo_confidence":"low"},{"name":"Bar Latina Radio","url":"https://s2.citrus3.com:2000/stream/barlatinaradio","lat":51.594985,"lon":-0.06895,"codec":"MP3","geo_confidence":"medium"},{"name":"Diamond Sky Radio","url":"http://streaming.radio.co/s323d1589a/listen","lat":53.47135597846386,"lon":-2.0340591106026102,"codec":"MP3","geo_confidence":"low"},{"name":"BluesRadio UK","url":"https://streaming06.liveboxstream.uk/proxy/david125/stream","lat":51.477929780166114,"lon":-0.07168446517006596,"codec":"MP3","geo_confidence":"low"},{"name":"Dance Revolution","url":"https://s5.radio.co/s89dcf578d/listen","lat":54.933828629874355,"lon":-1.6418167456232051,"codec":"MP3","geo_confidence":"low"},{"name":"60 North Radio","url":"https://cdn1.zetcast.net/stream","lat":60.38559266009365,"lon":-1.3688183470783473,"codec":"MP3","geo_confidence":"low"},{"name":"CLASSICAL RADIO INTERNATIONAL","url":"https://ec3.yesstreaming.net:3625/stream","lat":53.46364885634246,"lon":-2.0476714936673344,"codec":"MP3","geo_confidence":"low"},{"name":"CDNX Radio","url":"https://streaming.cdnx.co.uk/proxy/cx128mp3?mp=/stream&=&&___cb=870564735813642","lat":51.54133,"lon":-0.149753,"codec":"MP3","geo_confidence":"medium"},{"name":"Dance Wave Retro!","url":"https://retro.dancewave.online/retrodance.flac.ogg","lat":53.50144985072465,"lon":-2.0538845343419547,"codec":"OGG","geo_confidence":"low"},{"name":"Masjid Quba London","url":"http://livemasjid.net/masjidequba.mp3","lat":51.56508,"lon":-0.06844,"codec":"MP3","geo_confidence":"medium"},{"name":"SD Radio","url":"https://mystation.micast.media/radio/8020/radio.mp3","lat":54.549591205684024,"lon":-1.9298896874828708,"codec":"MP3","geo_confidence":"low"},{"name":"radioalfa19 latin hits","url":"http://stream.zeno.fm/5ue6sepm0d0uv","lat":53.45517018967778,"lon":-2.0261482937706514,"codec":"MP3","geo_confidence":"low"},{"name":"Merseyland Alternative Radio","url":"http://centova2.whsh4u.com:9209/stream","lat":53.499211339057474,"lon":-2.0278217723436702,"codec":"MP3","geo_confidence":"low"},{"name":"radioalfa3 latin hits","url":"http://stream.zeno.fm/pexep60uhnruv","lat":53.49061081999578,"lon":-1.982415012481486,"codec":"MP3","geo_confidence":"low"},{"name":"Radio Xtra Dance","url":"https://c30.radioboss.fm:8613/stream","lat":53.53808173730343,"lon":-2.0327496480564005,"codec":"MP3","geo_confidence":"low"},{"name":"radioalfa7 latin hits","url":"http://stream.zeno.fm/gxpcf0kavqzuv","lat":53.509490708139374,"lon":-1.9578155542590692,"codec":"MP3","geo_confidence":"low"},{"name":"Electric Lion Radio London","url":"https://streaming04.liveboxstream.uk/proxy/electric?mp=/stream","lat":51.545383,"lon":-0.192736,"codec":"MP3","geo_confidence":"medium"},{"name":"Ace Cafe Radio","url":"https://listen.radioking.com/radio/69079/stream/106852","lat":51.441456,"lon":-0.389714,"codec":"MP3","geo_confidence":"medium"},{"name":"24/7 Classical Radio","url":"https://ec3.yesstreaming.net:3615/stream","lat":53.48982453772212,"lon":-2.0085781786599144,"codec":"MP3","geo_confidence":"low"},{"name":"Sabotage","url":"https://listen.radioking.com/radio/634/stream/2282","lat":53.52640917698187,"lon":-1.9810525864912318,"codec":"MP3","geo_confidence":"low"},{"name":"Get Ready to Rock","url":"https://streamer.radio.co/s24ae1285c/listen","lat":53.46493687569162,"lon":-1.9851710397750537,"codec":"MP3","geo_confidence":"low"},{"name":"Black Metal Radio","url":"https://das-edge16-live365-dal02.cdnstream.com/a05584","lat":53.493442763643905,"lon":-1.9844236073641628,"codec":"MP3","geo_confidence":"low"},{"name":"Leicester Community Radio","url":"http://icecast.maxxwave.co.uk:8000/lcr_hq","lat":52.631905,"lon":-1.120129,"codec":"AAC","geo_confidence":"medium"},{"name":"Soul Roots Radio","url":"https://streams.radio.co/sbdfc075c0/listen","lat":51.45804374463345,"lon":-0.09812097080357395,"codec":"MP3","geo_confidence":"low"},{"name":"Heart 10s","url":"https://media-ice.musicradio.com/Heart10sMP3","lat":51.51014,"lon":-0.12908,"codec":"MP3","geo_confidence":"high"},{"name":"NoiseBox Radio","url":"http://n11.radiojar.com/n1bs4ekbvuhvv?rj-ttl=5&rj-tok=AAABjE1UCSYASTnnnPAqWHT0-w","lat":53.5040850484369,"lon":-1.994726930095285,"codec":"MP3","geo_confidence":"low"},{"name":"Christmas Mix Radio - Newcastle upon Tyne (AAC)","url":"http://stream.zeno.fm/360sf3z88e9uv","lat":54.9738474,"lon":-1.6131572,"codec":"AAC","geo_confidence":"medium"},{"name":"radioalfa18 latin hits","url":"http://stream.zeno.fm/d8gdu7nm0d0uv","lat":53.52893103039449,"lon":-1.9816575703017083,"codec":"MP3","geo_confidence":"low"},{"name":"The Thread 102.8FM","url":"http://radio.canstream.co.uk:8035/canal.mp3","lat":53.497405719103384,"lon":-1.971548916373064,"codec":"MP3","geo_confidence":"low"},{"name":"Pure Beat Radio","url":"https://cast6.asurahosting.com/proxy/purebeat/stream","lat":53.46854365803733,"lon":-1.9807432787098789,"codec":"MP3","geo_confidence":"none"},{"name":"radioalfa6 latin hits","url":"http://stream.zeno.fm/t1q7vkkavqzuv","lat":53.45307403202822,"lon":-1.975924654111947,"codec":"MP3","geo_confidence":"low"},{"name":"radioalfa9 latin hits","url":"http://stream.zeno.fm/4px23a06qtzuv","lat":53.528011246545475,"lon":-2.000522889442631,"codec":"MP3","geo_confidence":"low"},{"name":"Heart Love","url":"https://media-ice.musicradio.com/HeartLoveMP3","lat":51.51014,"lon":-0.12908,"codec":"MP3","geo_confidence":"high"},{"name":"Heart Northants 96.6","url":"http://ice-sov.musicradio.com/HeartNorthamptonshireMP3","lat":52.2398,"lon":-0.88662,"codec":"MP3","geo_confidence":"high"},{"name":"Gaydio London","url":"https://listen-gaydio.sharp-stream.com/472_gaydio_london_128_mp3","lat":51.5074456,"lon":-0.1277653,"codec":"MP3","geo_confidence":"medium"},{"name":"radioalfa12 latin hits","url":"http://stream.zeno.fm/ydf8ppv841zuv","lat":53.49120878042565,"lon":-2.0375997314072682,"codec":"MP3","geo_confidence":"low"},{"name":"Urban Vybez","url":"http://radio.cybervybez.headroomstreaming.com:8063/stream","lat":51.76065792563271,"lon":0.5893845250421168,"codec":"MP3","geo_confidence":"low"},{"name":"NOTE.radio","url":"http://s5.citrus3.com:8028/stream","lat":51.47169400107621,"lon":-0.12472554007073061,"codec":"MP3","geo_confidence":"low"},{"name":"Brown Noise Radio","url":"https://uk1.internet-radio.com/proxy/brownnoise?mp=/stream;","lat":53.55040162558561,"lon":-1.9725161650072587,"codec":"MP3","geo_confidence":"low"},{"name":"HearMe - trance","url":"https://radio.hearme.fm:8100/stream","lat":53.457530304825056,"lon":-1.9889786672904106,"codec":"MP3","geo_confidence":"low"},{"name":"ALL FM 96.9","url":"http://uksoutha.streaming.broadcast.radio:15870/allfm","lat":53.4451,"lon":-2.186945,"codec":"AAC+","geo_confidence":"medium"},{"name":"Funky Corner Radio UK","url":"https://ais-sa2.cdnstream1.com/2447_192.mp3","lat":53.490188358692734,"lon":-2.0342111907687994,"codec":"MP3","geo_confidence":"low"},{"name":"ENERGY FM - classic dance and the best new music","url":"https://s1.myradiostream.com/8838/listen.mp3","lat":53.45049552421446,"lon":-2.0108760114353794,"codec":"MP3","geo_confidence":"low"},{"name":"Orion Global House","url":"http://global.citrus3.com:8370/stream","lat":53.53050999279029,"lon":-2.0248920576716523,"codec":"AAC","geo_confidence":"low"},{"name":"Erewash Sound","url":"http://stream01.erewashsound.com/erewashaac","lat":52.988764,"lon":-1.306043,"codec":"AAC+","geo_confidence":"high"},{"name":"Intamixx","url":"https://intamixx.no-ip.com:8002/;","lat":53.45095805673533,"lon":-2.0246646796142835,"codec":"MP3","geo_confidence":"low"},{"name":"radioalfa14 latin hits","url":"http://stream.zeno.fm/xa06upg2h2zuv","lat":53.51138877599882,"lon":-2.049040321834395,"codec":"MP3","geo_confidence":"low"},{"name":"Box radio dreamscapes","url":"https://boxradio-edge-00.streamafrica.net/dreamscapes","lat":51.4211867,"lon":-2.2502457,"codec":"MP3","geo_confidence":"medium"},{"name":"Belfast 89 fm","url":"http://mp3streaming.planetwideradio.com:9030/belfastfm","lat":54.60313814186635,"lon":-5.925210297122383,"codec":"MP3","geo_confidence":"low"},{"name":"radioalfa16 latin hits","url":"http://stream.zeno.fm/zxh8nt5dtwzuv","lat":53.49302340436448,"lon":-1.9910781414588163,"codec":"MP3","geo_confidence":"low"},{"name":"WNBC London","url":"http://148.251.43.231:8120/stream","lat":51.5074456,"lon":-0.1277653,"codec":"MP3","geo_confidence":"medium"},{"name":"Source FM 96.1  Falmouth","url":"http://live.canstream.co.uk:8000/sourcefm.mp3?.mp3","lat":50.17207397460673,"lon":-5.125990177533696,"codec":"MP3","geo_confidence":"low"},{"name":"Bloop London Radio - live4","url":"https://radio.canstream.co.uk:8058/live4.mp3","lat":51.520945,"lon":-0.11618,"codec":"MP3","geo_confidence":"medium"},{"name":"Smooth Dorset","url":"http://media-ice.musicradio.com/SmoothDorsetMP3","lat":51.51014,"lon":-0.12908,"codec":"MP3","geo_confidence":"high"},{"name":"Point Blank FM","url":"https://pointblankradio.co.uk/stream.mp3?latency=high","lat":53.499627865309506,"lon":-2.032880864738925,"codec":"MP3","geo_confidence":"low"},{"name":"D3EP Radio","url":"https://cast.d3ep.com:8008/192?v=1726246823","lat":50.915264,"lon":-1.785278,"codec":"MP3","geo_confidence":"high"},{"name":"EKR Retro Rock","url":"https://streaming06.liveboxstream.uk/proxy/eastken4?mp=/stream","lat":51.162301,"lon":1.040553,"codec":"MP3","geo_confidence":"medium"},{"name":"Britain FM (MP3)","url":"http://stream.zeno.fm/ty19exy5s8quv","lat":53.45369799540115,"lon":-2.046123102719691,"codec":"MP3","geo_confidence":"low"},{"name":"Radio Gibraltar Plus","url":"http://s2.myradiostream.com:32910/;","lat":36.133162,"lon":-5.345733,"codec":"MP3","geo_confidence":"high"},{"name":"Soul Rhythms Radio UK","url":"https://a7.asurahosting.com:8230/radio.mp3","lat":51.47596852905489,"lon":-0.10852092992363517,"codec":"MP3","geo_confidence":"low"},{"name":"Social Light Radio","url":"http://uk5.internet-radio.com:8318/live","lat":51.508836,"lon":-0.092918,"codec":"MP3","geo_confidence":"high"},{"name":"Q Radio North West","url":"http://edge-audio-01-cr.sharp-stream.com/qr1029.mp3","lat":54.548436355633534,"lon":-6.686464788993231,"codec":"MP3","geo_confidence":"low"},{"name":"Fresh Fm Radio London","url":"https://eu4.fastcast4u.com/proxy/blacka?mp=/1","lat":51.5074456,"lon":-0.1277653,"codec":"MP3","geo_confidence":"medium"},{"name":"SAB RADIO FOLKESTONE UK","url":"https://spectrum.radioca.st/stream","lat":51.094293,"lon":1.171842,"codec":"MP3","geo_confidence":"medium"},{"name":"radioalfa8 latin hits","url":"http://stream.zeno.fm/51z3n54r1qzuv","lat":53.51469542497064,"lon":-1.9677757400699833,"codec":"MP3","geo_confidence":"low"},{"name":"Q Radio Mid Ulster","url":"http://edge-audio-02-gos1.sharp-stream.com/qr1060.mp3","lat":56.4800944,"lon":-2.9344513,"codec":"MP3","geo_confidence":"medium"},{"name":"Ujima Radio","url":"https://radio.canstream.co.uk:8037/live.mp3","lat":53.47151467245922,"lon":-1.9720384956540165,"codec":"MP3","geo_confidence":"low"},{"name":"radioalfa4 latin hits","url":"http://stream.zeno.fm/f1207heufnzuv","lat":53.54545043389556,"lon":-2.0463851522215144,"codec":"MP3","geo_confidence":"low"},{"name":"1Mix Radio - House (UK) 128kb mp3","url":"http://fr2.1mix.co.uk:9000/128hb","lat":53.54060538233389,"lon":-1.9612572755772288,"codec":"MP3","geo_confidence":"low"},{"name":"Like Country","url":"http://likeradiostream.com/likecountry","lat":51.530815,"lon":-0.093752,"codec":"MP3","geo_confidence":"medium"},{"name":"Q Radio Newry and Mourne","url":"http://edge-audio-02-gos1.sharp-stream.com/qr1005.mp3","lat":54.1775283,"lon":-6.337506,"codec":"MP3","geo_confidence":"medium"},{"name":"Heckington Living Community Radio","url":"https://streaming.live365.com/a52107","lat":53.51430506109244,"lon":-1.9975659728056208,"codec":"MP3","geo_confidence":"low"},{"name":"Unity 101 FM","url":"http://live.canstream.co.uk:8000/unity24.mp3","lat":50.9162,"lon":-1.41723,"codec":"MP3","geo_confidence":"high"},{"name":"Nation Radio South Coast Dorset","url":"http://listen-nation.sharp-stream.com/nationdorsetdab.mp3?ref=RF","lat":50.12731990912734,"lon":-5.659945992880637,"codec":"MP3","geo_confidence":"low"},{"name":"IANL","url":"http://live.ianl.org.uk:4016/stream.mp3","lat":51.611625,"lon":-0.175979,"codec":"MP3","geo_confidence":"medium"},{"name":"PopRockRadioUK","url":"https://popradiouk.out.airtime.pro/popradiouk_a","lat":53.53574089435412,"lon":-2.022549216523196,"codec":"MP3","geo_confidence":"low"},{"name":"Wey Valley","url":"https://stream.readyformed.com:8443/wey1","lat":51.149157,"lon":-0.975547,"codec":"AAC+","geo_confidence":"medium"},{"name":"Q Radio Mid Antrim","url":"http://edge-audio-02-gos1.sharp-stream.com/qr1070.mp3","lat":56.4800944,"lon":-2.9344513,"codec":"MP3","geo_confidence":"medium"},{"name":"Chunt FM","url":"https://fm.chunt.org/stream","lat":51.524502934050865,"lon":-0.13316816272637064,"codec":"MP3","geo_confidence":"low"},{"name":"OSTM Radio","url":"https://stream.zeno.fm/1vx25xbdmzzuv","lat":53.472579,"lon":-2.299578,"codec":"MP3","geo_confidence":"high"},{"name":"Express FM Radio","url":"http://s2.xrad.io:8014/stream","lat":51.482482119812865,"lon":-3.1765721245498333,"codec":"MP3","geo_confidence":"low"},{"name":"in2Beats","url":"https://in2radio.co.uk/IN2MP3","lat":52.15579545815433,"lon":-0.47588810887816896,"codec":"MP3","geo_confidence":"low"},